{"name"=>"가천대학교 글로벌캠퍼스", "area"=>"경기", "address"=>"경기 성남시 수정구 복정동 620-2", "road_address"=>"경기 성남시 수정구 성남대로 1342", "Lat"=>"37.452288655557076", "Lng"=>"127.13049478628298"}
{"name"=>"가톨릭관동대학교 강릉캠퍼스", "area"=>"강원", "address"=>"강원 강릉시 내곡동 522", "road_address"=>"강원 강릉시 범일로579번길 24", "Lat"=>"37.73619050860646", "Lng"=>"128.87373021643197"}
{"name"=>"감리교신학대학교", "area"=>"서울", "address"=>"서울 서대문구 냉천동 31", "road_address"=>"서울 서대문구 독립문로 56", "Lat"=>"37.567791331132064", "Lng"=>"126.96212594667405"}
{"name"=>"강남대학교", "area"=>"경기", "address"=>"경기 용인시 기흥구 구갈동 111", "road_address"=>"경기 용인시 기흥구 강남로 40", "Lat"=>"37.27580737911758", "Lng"=>"127.13289110059462"}
{"name"=>"건국대학교 서울캠퍼스", "area"=>"서울", "address"=>"서울 광진구 화양동 1", "road_address"=>"서울 광진구 능동로 120", "Lat"=>"37.542807920117426", "Lng"=>"127.07628858975393"}
{"name"=>"건국대학교 글로컬캠퍼스", "area"=>"충북", "address"=>"충북 충주시 단월동 322", "road_address"=>"충북 충주시 충원대로 266", "Lat"=>"36.94952675974812", "Lng"=>"127.9075044898713"}
{"name"=>"경남과학기술대학교", "area"=>"경남", "address"=>"경남 진주시 칠암동 150-1", "road_address"=>"경남 진주시 동진로 33", "Lat"=>"35.18136563614968", "Lng"=>"128.09422779058787"}
{"name"=>"경남대학교", "area"=>"경남", "address"=>"경남 창원시 마산합포구 월영동 449", "road_address"=>"경남 창원시 마산합포구 경남대학로 7", "Lat"=>"35.18036078300321", "Lng"=>"128.55323473113248"}
{"name"=>"경북대학교 대구캠퍼스", "area"=>"대구", "address"=>"대구 북구 산격동 1370-1", "road_address"=>"대구 북구 대학로 80", "Lat"=>"35.8907612942069", "Lng"=>"128.6128980755628"}
{"name"=>"경상대학교 통영캠퍼스", "area"=>"경남", "address"=>"경남 통영시 인평동 120", "road_address"=>"경남 통영시 천대국치길 38", "Lat"=>"34.83794984390212", "Lng"=>"128.40012077252902"}
{"name"=>"경성대학교", "area"=>"부산", "address"=>"부산 남구 대연3동 산37-1", "road_address"=>"부산 남구 수영로 309", "Lat"=>"35.139949040067215", "Lng"=>"129.09811342652537"}
{"name"=>"경운대학교", "area"=>"경북", "address"=>"경북 구미시 산동면 인덕리 171-3", "road_address"=>"경북 구미시 산동면 강동로 730", "Lat"=>"36.16926999839434", "Lng"=>"128.46764787406323"}
{"name"=>"경일대학교", "area"=>"경북", "address"=>"경북 경산시 하양읍 부호리 33", "road_address"=>"경북 경산시 하양읍 가마실길 50", "Lat"=>"35.90843189984915", "Lng"=>"128.80116009991488"}
{"name"=>"경주대학교", "area"=>"경북", "address"=>"경북 경주시 효현동 산42-1", "road_address"=>"경북 경주시 태종로 188", "Lat"=>"35.829739524023736", "Lng"=>"129.16235894206207"}
{"name"=>"경희대학교 서울캠퍼스", "area"=>"서울", "address"=>"서울 동대문구 회기동 1-5", "road_address"=>"서울 동대문구 경희대로 26", "Lat"=>"37.59655624586565", "Lng"=>"127.05252319469136"}
{"name"=>"계명대학교 성서캠퍼스", "area"=>"대구", "address"=>"대구 달서구 호산동 산2-1", "road_address"=>"대구 달서구 달구벌대로 1095", "Lat"=>"35.85573463743823", "Lng"=>"128.48203256610196"}
{"name"=>"고려대학교 안암캠퍼스", "area"=>"서울", "address"=>"서울 성북구 안암동5가 1-2", "road_address"=>"서울 성북구 안암로 145", "Lat"=>"37.59058103664856", "Lng"=>"127.0318981797902"}
{"name"=>"고려대학교 세종캠퍼스", "area"=>"세종시", "address"=>"세종특별자치시 조치원읍 서창리 208", "road_address"=>"세종특별자치시 조치원읍 세종로 2511", "Lat"=>"36.61095298924372", "Lng"=>"127.2869872110832"}
{"name"=>"고신대학교 영도캠퍼스", "area"=>"부산", "address"=>"부산 영도구 동삼동 516-36", "road_address"=>"부산 영도구 와치로 194", "Lat"=>"35.079389263466666", "Lng"=>"129.06314322507183"}
{"name"=>"공주대학교 신관캠퍼스", "area"=>"충남", "address"=>"충남 공주시 신관동 182", "road_address"=>"충남 공주시 공주대학로 56", "Lat"=>"36.47004816768364", "Lng"=>"127.14084365545368"}
{"name"=>"광신대학교", "area"=>"광주", "address"=>"광주 북구 본촌동 132-1", "road_address"=>"광주 북구 양산택지소로 36", "Lat"=>"35.215678041070305", "Lng"=>"126.88513312905066"}
{"name"=>"광운대학교", "area"=>"서울", "address"=>"서울 노원구 월계동 447-1", "road_address"=>"서울 노원구 광운로 20", "Lat"=>"37.61924046388648", "Lng"=>"127.05827060886708"}
{"name"=>"광주가톨릭대학교", "area"=>"전남", "address"=>"전남 나주시 남평읍 남석리 산67-1", "road_address"=>"전남 나주시 남평읍 중남길 12-25", "Lat"=>"35.016004513563345", "Lng"=>"126.8647097283536"}
{"name"=>"광주과학기술원", "area"=>"광주", "address"=>"광주 북구 오룡동 1", "road_address"=>"광주 북구 첨단과기로 123", "Lat"=>"35.22801742161489", "Lng"=>"126.84187928906934"}
{"name"=>"광주대학교", "area"=>"광주", "address"=>"광주 남구 진월동 592-1", "road_address"=>"광주 남구 효덕로 277", "Lat"=>"35.106024329126484", "Lng"=>"126.89531237524365"}
{"name"=>"광주여자대학교", "area"=>"광주", "address"=>"광주 광산구 산정동 165", "road_address"=>"광주 광산구 여대길 201", "Lat"=>"35.163878632297994", "Lng"=>"126.796930727012"}
{"name"=>"국민대학교", "area"=>"서울", "address"=>"서울 성북구 정릉동 861-1", "road_address"=>"서울 성북구 정릉로 77", "Lat"=>"37.61076389615321", "Lng"=>"126.99696923923561"}
{"name"=>"군산대학교", "area"=>"전북", "address"=>"전북 군산시 미룡동 290-2", "road_address"=>"전북 군산시 대학로 558", "Lat"=>"35.945891729061024", "Lng"=>"126.68206286768846"}
{"name"=>"KC대학교", "area"=>"서울", "address"=>"서울 강서구 화곡6동 953-1", "road_address"=>"서울 강서구 까치산로24길 47", "Lat"=>"37.548524213830554", "Lng"=>"126.85489352853521"}
{"name"=>"극동대학교", "area"=>"충북", "address"=>"충북 음성군 감곡면 왕장리 234-4", "road_address"=>"충북 음성군 감곡면 대학길 76-32", "Lat"=>"37.12759122110198", "Lng"=>"127.64298358850856"}
{"name"=>"금강대학교", "area"=>"충남", "address"=>"충남 논산시 상월면 대명리 14-9", "road_address"=>"충남 논산시 상월면 상월로 522", "Lat"=>"36.30588964635633", "Lng"=>"127.19513605527099"}
{"name"=>"금오공과대학교", "area"=>"경북", "address"=>"경북 구미시 양호동 1", "road_address"=>"경북 구미시 대학로 61", "Lat"=>"36.14618951357098", "Lng"=>"128.393515613983"}
{"name"=>"김천대학교", "area"=>"경북", "address"=>"경북 김천시 삼락동 754-1", "road_address"=>"경북 김천시 대학로 214", "Lat"=>"36.13898260783697", "Lng"=>"128.08065988818709"}
{"name"=>"꽃동네대학교", "area"=>"충북", "address"=>"충북 청주시 서원구 현도면 상삼리 387", "road_address"=>"충북 청주시 서원구 현도면 상삼길 133", "Lat"=>"36.521976019490296", "Lng"=>"127.40121924662779"}
{"name"=>"나사렛대학교", "area"=>"충남", "address"=>"충남 천안시 서북구 쌍용동 456", "road_address"=>"충남 천안시 서북구 쌍용14길 46-20", "Lat"=>"36.79620756564293", "Lng"=>"127.1194773975315"}
{"name"=>"남부대학교", "area"=>"광주", "address"=>"광주 광산구 월계동 864-1 광주 첨단과학단지 내", "road_address"=>"광주 광산구 첨단중앙로 23", "Lat"=>"35.20735049063832", "Lng"=>"126.84128240317459"}
{"name"=>"남서울대학교", "area"=>"충남", "address"=>"충남 천안시 서북구 성환읍 매주리 21", "road_address"=>"충남 천안시 서북구 성환읍 대학로 91", "Lat"=>"36.90807723086351", "Lng"=>"127.14290149063893"}
{"name"=>"대구가톨릭대학교 효성캠퍼스", "area"=>"경북", "address"=>"경북 경산시 하양읍 금락리 산30", "road_address"=>"경북 경산시 하양읍 하양로 13-13", "Lat"=>"35.911900994627345", "Lng"=>"128.80824378470317"}
{"name"=>"대구경북과학기술원", "area"=>"대구", "address"=>"대구 달성군 현풍면 상리 50-1", "road_address"=>"대구 달성군 현풍면 테크노중앙대로 333", "Lat"=>"35.70533016590445", "Lng"=>"128.4547810273145"}
{"name"=>"대구대학교 경산캠퍼스", "area"=>"경북", "address"=>"경북 경산시 진량읍 내리리 15", "road_address"=>"경북 경산시 진량읍 대구대로 201", "Lat"=>"35.902798923632595", "Lng"=>"128.84759864042343"}
{"name"=>"대구예술대학교", "area"=>"경북", "address"=>"경북 칠곡군 가산면 다부리 860", "road_address"=>"경북 칠곡군 가산면 다부거문1길 202", "Lat"=>"36.03262846513638", "Lng"=>"128.50988063739283"}
{"name"=>"대구외국어대학교", "area"=>"경북", "address"=>"경북 경산시 남천면 협석리 128-1", "road_address"=>"경북 경산시 남천면 남천로 730", "Lat"=>"35.78480602678717", "Lng"=>"128.72647613930744"}
{"name"=>"대구한의대학교", "area"=>"경북", "address"=>"경북 경산시 유곡동 290", "road_address"=>"경북 경산시 한의대로 1", "Lat"=>"35.79524115574442", "Lng"=>"128.7754710555485"}
{"name"=>"대신대학교", "area"=>"경북", "address"=>"경북 경산시 백천동 137", "road_address"=>"경북 경산시 경청로222길 33", "Lat"=>"35.804053155346885", "Lng"=>"128.7445255298922"}
{"name"=>"대전가톨릭대학교", "area"=>"세종시", "address"=>"세종특별자치시 전의면 신방리 263-3", "road_address"=>"세종특별자치시 전의면 가톨릭대학로 30", "Lat"=>"36.65482283952482", "Lng"=>"127.19699267150278"}
{"name"=>"대전대학교", "area"=>"대전", "address"=>"대전 동구 용운동 96-3", "road_address"=>"대전 동구 대학로 62", "Lat"=>"36.33628682033165", "Lng"=>"127.46004201381905"}
{"name"=>"대전신학대학교", "area"=>"대전", "address"=>"대전 대덕구 오정동 226-22", "road_address"=>"대전 대덕구 한남로 41", "Lat"=>"36.35033201539697", "Lng"=>"127.42361557161179"}
{"name"=>"대진대학교", "area"=>"경기", "address"=>"경기 포천시 선단동 산11-1", "road_address"=>"경기 포천시 호국로 1007", "Lat"=>"37.87344960977768", "Lng"=>"127.15752096474502"}
{"name"=>"덕성여자대학교", "area"=>"서울", "address"=>"서울 도봉구 쌍문동 419", "road_address"=>"서울 도봉구 삼양로144길 33", "Lat"=>"37.65146570545595", "Lng"=>"127.01665788019831"}
{"name"=>"동국대학교 서울캠퍼스", "area"=>"서울", "address"=>"서울 중구 장충동2가 192-5", "road_address"=>"서울 중구 필동로1길 30", "Lat"=>"37.55817836703557", "Lng"=>"127.00039385766287"}
{"name"=>"동국대학교 경주캠퍼스", "area"=>"경북", "address"=>"경북 경주시 석장동 707", "road_address"=>"경북 경주시 동대로 123", "Lat"=>"35.863183845250894", "Lng"=>"129.19450061151278"}
{"name"=>"동덕여자대학교", "area"=>"서울", "address"=>"서울 성북구 상월곡동 23-1", "road_address"=>"서울 성북구 화랑로13길 60", "Lat"=>"37.60683902595485", "Lng"=>"127.0418123337537"}
{"name"=>"동명대학교", "area"=>"부산", "address"=>"부산 남구 용당동 535", "road_address"=>"부산 남구 신선로 428", "Lat"=>"35.12278801080328", "Lng"=>"129.1016128701898"}
{"name"=>"동서대학교 국제생활관1", "area"=>"부산", "address"=>"부산 사상구 주례동 산69-1", "road_address"=>"부산 사상구 주례로 47", "Lat"=>"35.14300919642234", "Lng"=>"129.00664512941125"}
{"name"=>"동신대학교", "area"=>"전남", "address"=>"전남 나주시 대호동 252-17", "road_address"=>"전남 나주시 건재로 185", "Lat"=>"35.05075894181874", "Lng"=>"126.71836162894449"}
{"name"=>"동아대학교 부민캠퍼스", "area"=>"부산", "address"=>"부산 서구 부민동2가 1", "road_address"=>"부산 서구 구덕로 225", "Lat"=>"35.10483387119491", "Lng"=>"129.01910478083363"}
{"name"=>"동양대학교", "area"=>"경북", "address"=>"경북 영주시 풍기읍 산법리 574", "road_address"=>nil, "Lat"=>"36.88314369992903", "Lng"=>"128.53234464578384"}
{"name"=>"동의대학교 가야캠퍼스", "area"=>"부산", "address"=>"부산 부산진구 가야동 465-2", "road_address"=>"부산 부산진구 엄광로 176", "Lat"=>"35.143063613818235", "Lng"=>"129.03471501614348"}
{"name"=>"루터대학교", "area"=>"경기", "address"=>"경기 용인시 기흥구 상갈동 17", "road_address"=>"경기 용인시 기흥구 금화로82번길 20", "Lat"=>"37.26483169001171", "Lng"=>"127.11304814802833"}
{"name"=>"목원대학교", "area"=>"대전", "address"=>"대전 서구 도안동 800 목원길 21", "road_address"=>"대전 서구 도안북로 88", "Lat"=>"36.3263147186358", "Lng"=>"127.33855978726412"}
{"name"=>"목포가톨릭대학교", "area"=>"전남", "address"=>"전남 목포시 석현동 894-1", "road_address"=>"전남 목포시 영산로 697", "Lat"=>"34.82656326433172", "Lng"=>"126.41954671181189"}
{"name"=>"목포대학교 도림캠퍼스", "area"=>"전남", "address"=>"전남 무안군 청계면 도림리 61", "road_address"=>"전남 무안군 청계면 영산로 1666", "Lat"=>"34.911158176076846", "Lng"=>"126.43751446209365"}
{"name"=>"목포해양대학교", "area"=>"전남", "address"=>"전남 목포시 죽교동 571", "road_address"=>"전남 목포시 해양대학로 91", "Lat"=>"34.79164453731779", "Lng"=>"126.36493620246543"}
{"name"=>"배재대학교", "area"=>"대전", "address"=>"대전 서구 도마동 439-6", "road_address"=>"대전 서구 배재로 155-40", "Lat"=>"36.32072312593467", "Lng"=>"127.36570778901184"}
{"name"=>"백석대학교", "area"=>"충남", "address"=>"충남 천안시 동남구 안서동 115", "road_address"=>"충남 천안시 동남구 문암로 76", "Lat"=>"36.83940171489423", "Lng"=>"127.18528099801087"}
{"name"=>"부경대학교 용당캠퍼스", "area"=>"부산", "address"=>"부산 남구 용당동 산100", "road_address"=>"부산 남구 신선로 365", "Lat"=>"35.117704032075466", "Lng"=>"129.09148861263773"}
{"name"=>"부산가톨릭대학교", "area"=>"부산", "address"=>"부산 금정구 부곡동 9", "road_address"=>"부산 금정구 오륜대로 57", "Lat"=>"35.245802748961985", "Lng"=>"129.09888695192595"}
{"name"=>"부산대학교 부산캠퍼스", "area"=>"부산", "address"=>"부산 금정구 장전동 40", "road_address"=>"부산 금정구 부산대학로63번길 2", "Lat"=>"35.23341756589079", "Lng"=>"129.0784158641632"}
{"name"=>"부산외국어대학교 남산동캠퍼스", "area"=>"부산", "address"=>"부산 금정구 남산동 857-1", "road_address"=>"부산 금정구 금샘로485번길 65", "Lat"=>"35.26747346763501", "Lng"=>"129.07926804209077"}
{"name"=>"부산장신대학교", "area"=>"경남", "address"=>"경남 김해시 구산동 764", "road_address"=>"경남 김해시 김해대로 1894-68", "Lat"=>"35.257049281669865", "Lng"=>"128.86126902574958"}
{"name"=>"삼육대학교", "area"=>"서울", "address"=>"서울 노원구 공릉2동 26-21", "road_address"=>"서울 노원구 화랑로 815", "Lat"=>"37.64359481450976", "Lng"=>"127.10634082841884"}
{"name"=>"상명대학교 서울캠퍼스", "area"=>"서울", "address"=>"서울 종로구 홍지동 7-1", "road_address"=>"서울 종로구 홍지문2길 20", "Lat"=>"37.6023114124464", "Lng"=>"126.95535003318051"}
{"name"=>"상명대학교 천안캠퍼스", "area"=>"충남", "address"=>"충남 천안시 동남구 안서동 300", "road_address"=>"충남 천안시 동남구 상명대길 31", "Lat"=>"36.833781067021505", "Lng"=>"127.17910636443648"}
{"name"=>"상지대학교", "area"=>"강원", "address"=>"강원 원주시 우산동 660", "road_address"=>"강원 원주시 상지대길 83", "Lat"=>"37.37073957742232", "Lng"=>"127.9301515924389"}
{"name"=>"서강대학교 서울캠퍼스", "area"=>"서울", "address"=>"서울 마포구 대흥동 산1-30", "road_address"=>"서울 마포구 백범로 35", "Lat"=>"37.551925269638225", "Lng"=>"126.9413020073163"}
{"name"=>"서경대학교", "area"=>"서울", "address"=>"서울 성북구 정릉동 산16-1", "road_address"=>"서울 성북구 서경로 124", "Lat"=>"37.6151888420765", "Lng"=>"127.01330623585389"}
{"name"=>"서울과학기술대학교", "area"=>"서울", "address"=>"서울 노원구 공릉동 172", "road_address"=>"서울 노원구 공릉로 232", "Lat"=>"37.631792743240226", "Lng"=>"127.07752594604521"}
{"name"=>"서울기독대학교", "area"=>"서울", "address"=>"서울 은평구 신사동 1-19", "road_address"=>"서울 은평구 갈현로4길 26-2", "Lat"=>"37.60102610333921", "Lng"=>"126.91259049172831"}
{"name"=>"서울대학교 관악캠퍼스", "area"=>"서울", "address"=>"서울 관악구 대학동 산56-1", "road_address"=>"서울 관악구 관악로 1", "Lat"=>"37.46129338617815", "Lng"=>"126.95397365500165"}
{"name"=>"서울시립대학교", "area"=>"서울", "address"=>"서울 동대문구 전농동 90", "road_address"=>"서울 동대문구 서울시립대로 163", "Lat"=>"37.58385650132752", "Lng"=>"127.05880457068177"}
{"name"=>"서울신학대학교", "area"=>"경기", "address"=>"경기 부천시 소사구 소사본동 101-1", "road_address"=>"경기 부천시 소사구 호현로489번길 52", "Lat"=>"37.47976902051566", "Lng"=>"126.78930766056669"}
{"name"=>"서울여자대학교 서울캠퍼스", "area"=>"서울", "address"=>"서울 노원구 공릉동 126", "road_address"=>"서울 노원구 화랑로 621", "Lat"=>"37.62785822789243", "Lng"=>"127.0912562938369"}
{"name"=>"서울장신대학교", "area"=>"경기", "address"=>"경기 광주시 경안동 219-1", "road_address"=>"경기 광주시 경안로 145", "Lat"=>"37.410148726178406", "Lng"=>"127.24653410344133"}
{"name"=>"서원대학교", "area"=>"충북", "address"=>"충북 청주시 서원구 모충동 231", "road_address"=>"충북 청주시 서원구 무심서로 377-3", "Lat"=>"36.62432474757646", "Lng"=>"127.48175492420242"}
{"name"=>"선문대학교 아산캠퍼스", "area"=>"충남", "address"=>"충남 아산시 탕정면 갈산리 100", "road_address"=>"충남 아산시 탕정면 선문로221번길 70", "Lat"=>"36.799376287324435", "Lng"=>"127.07485462008907"}
{"name"=>"성결대학교", "area"=>"경기", "address"=>"경기 안양시 만안구 안양동 400-10", "road_address"=>"경기 안양시 만안구 성결대학로 53", "Lat"=>"37.38010184764616", "Lng"=>"126.92727284474098"}
{"name"=>"성공회대학교", "area"=>"서울", "address"=>"서울 구로구 항동 1-1", "road_address"=>"서울 구로구 연동로 320", "Lat"=>"37.48764528330512", "Lng"=>"126.82558580021465"}
{"name"=>"성균관대학교 인문사회과학캠퍼스", "area"=>"서울", "address"=>"서울 종로구 명륜3가 53-21", "road_address"=>"서울 종로구 성균관로 25-2", "Lat"=>"37.58799032542212", "Lng"=>"126.99379540079681"}
{"name"=>"성균관대학교 자연과학캠퍼스", "area"=>"경기", "address"=>"경기 수원시 장안구 천천동 300", "road_address"=>"경기 수원시 장안구 서부로 2066", "Lat"=>"37.29327649954117", "Lng"=>"126.97457500210648"}
{"name"=>"성신여자대학교 돈암수정캠퍼스", "area"=>"서울", "address"=>"서울 성북구 동선동3가 249-1", "road_address"=>"서울 성북구 보문로34다길 2", "Lat"=>"37.59180861830889", "Lng"=>"127.02214747441113"}
{"name"=>"세명대학교", "area"=>"충북", "address"=>"충북 제천시 신월동 579", "road_address"=>"충북 제천시 세명로 65", "Lat"=>"37.18033137851663", "Lng"=>"128.1953184807843"}
{"name"=>"세종대학교", "area"=>"서울", "address"=>"서울 광진구 군자동 98", "road_address"=>"서울 광진구 능동로 209", "Lat"=>"37.55145176323655", "Lng"=>"127.07398878654003"}
{"name"=>"송원대학교", "area"=>"광주", "address"=>"광주 남구 송하동 365", "road_address"=>"광주 남구 송암로 73", "Lat"=>"35.109173565442624", "Lng"=>"126.87429631723963"}
{"name"=>"수원가톨릭대학교", "area"=>"경기", "address"=>"경기 화성시 봉담읍 왕림리 220-1", "road_address"=>"경기 화성시 봉담읍 왕림1길 67", "Lat"=>"37.194769374178755", "Lng"=>"126.93396116682902"}
{"name"=>"수원대학교", "area"=>"경기", "address"=>"경기 화성시 봉담읍 와우리 1-2", "road_address"=>"경기 화성시 봉담읍 와우안길 17", "Lat"=>"37.209166226493785", "Lng"=>"126.97646880142939"}
{"name"=>"숙명여자대학교", "area"=>"서울", "address"=>"서울 용산구 청파동2가 53-12", "road_address"=>"서울 용산구 청파로47길 100", "Lat"=>"37.54620065333279", "Lng"=>"126.96478480201121"}
{"name"=>"순천대학교", "area"=>"전남", "address"=>"전남 순천시 석현동 313", "road_address"=>"전남 순천시 중앙로 255", "Lat"=>"34.96955313020579", "Lng"=>"127.48014537858106"}
{"name"=>"순천향대학교", "area"=>"충남", "address"=>"충남 아산시 신창면 읍내리 646", "road_address"=>"충남 아산시 신창면 순천향로 22", "Lat"=>"36.769978913402426", "Lng"=>"126.93215432365628"}
{"name"=>"숭실대학교", "area"=>"서울", "address"=>"서울 동작구 상도동 511", "road_address"=>"서울 동작구 상도로 369", "Lat"=>"37.49656030219593", "Lng"=>"126.95775617972956"}
{"name"=>"신경대학교", "area"=>"경기", "address"=>"경기 화성시 남양읍 남양리 1479", "road_address"=>"경기 화성시 남양읍 남양중앙로 400-5", "Lat"=>"37.202759706853676", "Lng"=>"126.83951300348406"}
{"name"=>"신라대학교", "area"=>"부산", "address"=>"부산 사상구 괘법동 1-25", "road_address"=>"부산 사상구 백양대로700번길 140", "Lat"=>"35.16745529988861", "Lng"=>"128.99819837820863"}
{"name"=>"아세아연합신학대학교", "area"=>"경기", "address"=>"경기 양평군 옥천면 아신리 933-15", "road_address"=>"경기 양평군 옥천면 경강로 1276", "Lat"=>"37.511230641313155", "Lng"=>"127.4283923292736"}
{"name"=>"아주대학교", "area"=>"경기", "address"=>"경기 수원시 영통구 원천동 산5-1", "road_address"=>"경기 수원시 영통구 월드컵로 206", "Lat"=>"37.282796461249035", "Lng"=>"127.04640907021366"}
{"name"=>"안동대학교", "area"=>"경북", "address"=>"경북 안동시 송천동 388", "road_address"=>"경북 안동시 경동로 1375", "Lat"=>"36.54220042261419", "Lng"=>"128.79689338657428"}
{"name"=>"연세대학교 신촌캠퍼스", "area"=>"서울", "address"=>"서울 서대문구 신촌동 134", "road_address"=>"서울 서대문구 연세로 50", "Lat"=>"37.56548558800211", "Lng"=>"126.93838015999813"}
{"name"=>"연세대학교 원주캠퍼스", "area"=>"강원", "address"=>"강원 원주시 흥업면 매지리 1496", "road_address"=>"강원 원주시 흥업면 연세대길 1", "Lat"=>"37.2810757709683", "Lng"=>"127.90124096676315"}
{"name"=>"영남대학교 경산캠퍼스", "area"=>"경북", "address"=>"경북 경산시 대동 214-1", "road_address"=>"경북 경산시 대학로 280", "Lat"=>"35.831679472205515", "Lng"=>"128.757050316665"}
{"name"=>"영남신학대학교", "area"=>"경북", "address"=>"경북 경산시 진량읍 봉회리 117", "road_address"=>"경북 경산시 진량읍 봉회1길 26", "Lat"=>"35.881379585184284", "Lng"=>"128.81677970932586"}
{"name"=>"영동대학교", "area"=>"충북", "address"=>"충북 영동군 영동읍 설계리 54", "road_address"=>"충북 영동군 영동읍 대학로 310", "Lat"=>"36.19492429342079", "Lng"=>"127.79802388662911"}
{"name"=>"영산선학대학교", "area"=>"전남", "address"=>"전남 영광군 백수읍 길용리 20-2", "road_address"=>"전남 영광군 백수읍 성지로 1357", "Lat"=>"35.3272585702467", "Lng"=>"126.44235004262241"}
{"name"=>"예수대학교", "area"=>"전북", "address"=>"전북 전주시 완산구 중화산동1가 168-1", "road_address"=>"전북 전주시 완산구 서원로 383", "Lat"=>"35.81591655542696", "Lng"=>"127.13450951269384"}
{"name"=>"용인대학교", "area"=>"경기", "address"=>"경기 용인시 처인구 삼가동 470", "road_address"=>"경기 용인시 처인구 용인대학로 134", "Lat"=>"37.22636730812983", "Lng"=>"127.16819020798985"}
{"name"=>"우석대학교 전주캠퍼스", "area"=>"전북", "address"=>"전북 완주군 삼례읍 후정리 490", "road_address"=>"전북 완주군 삼례읍 삼례로 443", "Lat"=>"35.91274308386849", "Lng"=>"127.0660958052429"}
{"name"=>"우송대학교 서캠퍼스", "area"=>"대전", "address"=>"대전 동구 자양동 155-3", "road_address"=>"대전 동구 동대전로 171", "Lat"=>"36.337168697699845", "Lng"=>"127.44611523717126"}
{"name"=>"울산과학기술원", "area"=>"울산", "address"=>"울산 울주군 언양읍 반연리 100", "road_address"=>"울산 울주군 언양읍 유니스트길 50", "Lat"=>"35.57410738926406", "Lng"=>"129.18899351337475"}
{"name"=>"울산대학교", "area"=>"울산", "address"=>"울산 남구 무거동 665", "road_address"=>"울산 남구 대학로 93", "Lat"=>"35.54368678185153", "Lng"=>"129.25623039345967"}
{"name"=>"원광대학교", "area"=>"전북", "address"=>"전북 익산시 신동 272", "road_address"=>"전북 익산시 익산대로 460", "Lat"=>"35.968482949235764", "Lng"=>"126.95737451148763"}
{"name"=>"위덕대학교", "area"=>"경북", "address"=>"경북 경주시 강동면 유금리 525", "road_address"=>"경북 경주시 강동면 동해대로 261", "Lat"=>"36.012511366153944", "Lng"=>"129.28304728397524"}
{"name"=>"이화여자대학교", "area"=>"서울", "address"=>"서울 서대문구 대현동 11-1", "road_address"=>"서울 서대문구 이화여대길 52", "Lat"=>"37.56299610670633", "Lng"=>"126.9476543062083"}
{"name"=>"인천대학교 송도캠퍼스", "area"=>"인천", "address"=>"인천 연수구 송도동 12-1", "road_address"=>"인천 연수구 아카데미로 119", "Lat"=>"37.374513138362126", "Lng"=>"126.6331538447936"}
{"name"=>"인하대학교", "area"=>"인천", "address"=>"인천 남구 용현동 253", "road_address"=>"인천 남구 인하로 100", "Lat"=>"37.44993529821802", "Lng"=>"126.65346282254775"}
{"name"=>"장로회신학대학교", "area"=>"서울", "address"=>"서울 광진구 광장동 353", "road_address"=>"서울 광진구 광장로5길 25-1", "Lat"=>"37.55038751502747", "Lng"=>"127.10408527666748"}
{"name"=>"전북대학교 전주캠퍼스", "area"=>"전북", "address"=>"전북 전주시 덕진구 덕진동1가 664-14", "road_address"=>"전북 전주시 덕진구 백제대로 567", "Lat"=>"35.84674878005919", "Lng"=>"127.12942528419897"}
{"name"=>"전주대학교", "area"=>"전북", "address"=>"전북 전주시 완산구 효자동2가 1080", "road_address"=>"전북 전주시 완산구 천잠로 303", "Lat"=>"35.814916390872554", "Lng"=>"127.08982681032836"}
{"name"=>"제주국제대학교", "area"=>"제주", "address"=>"제주특별자치도 제주시 영평동 2235", "road_address"=>"제주특별자치도 제주시 516로 2870", "Lat"=>"33.441453370749386", "Lng"=>"126.56997977723968"}
{"name"=>"제주대학교 아라캠퍼스", "area"=>"제주", "address"=>"제주특별자치도 제주시 아라1동 1", "road_address"=>"제주특별자치도 제주시 제주대학로 102", "Lat"=>"33.45542847494359", "Lng"=>"126.5618179771412"}
{"name"=>"조선대학교", "area"=>"광주", "address"=>"광주 동구 서석동 300", "road_address"=>"광주 동구 필문대로 309", "Lat"=>"35.141073343405935", "Lng"=>"126.93103132205354"}
{"name"=>"중부대학교", "area"=>"충남", "address"=>"충남 금산군 추부면 마전리 755-3", "road_address"=>"충남 금산군 추부면 대학로 201", "Lat"=>"36.19279035651403", "Lng"=>"127.44836785975143"}
{"name"=>"중앙승가대학교", "area"=>"경기", "address"=>"경기 김포시 풍무동 670-1", "road_address"=>"경기 김포시 승가로 123", "Lat"=>"37.604614130108615", "Lng"=>"126.70629894608639"}
{"name"=>"중원대학교", "area"=>"충북", "address"=>"충북 괴산군 괴산읍 동부리 5", "road_address"=>"충북 괴산군 괴산읍 문무로 85", "Lat"=>"36.81921882664044", "Lng"=>"127.79941018005339"}
{"name"=>"차의과학대학교 분당캠퍼스", "area"=>"경기", "address"=>"경기 성남시 분당구 야탑동 222", "road_address"=>"경기 성남시 분당구 벌말로30번길 43", "Lat"=>"37.410171257934635", "Lng"=>"127.14321264626294"}
{"name"=>"창신대학교", "area"=>"경남", "address"=>"경남 창원시 마산회원구 합성동 1", "road_address"=>"경남 창원시 마산회원구 팔용로 262", "Lat"=>"35.24423550049757", "Lng"=>"128.59956363074906"}
{"name"=>"창원대학교", "area"=>"경남", "address"=>"경남 창원시 의창구 퇴촌동 69", "road_address"=>"경남 창원시 의창구 창원대학로 20", "Lat"=>"35.24570155076541", "Lng"=>"128.6929096839179"}
{"name"=>"청주대학교", "area"=>"충북", "address"=>"충북 청주시 청원구 내덕동 36", "road_address"=>"충북 청주시 청원구 대성로 298", "Lat"=>"36.652742929676755", "Lng"=>"127.49575943941743"}
{"name"=>"초당대학교", "area"=>"전남", "address"=>"전남 무안군 무안읍 성남리 419", "road_address"=>"전남 무안군 무안읍 무안로 380", "Lat"=>"34.977756674758645", "Lng"=>"126.47314581680803"}
{"name"=>"총신대학교 사당캠퍼스", "area"=>"서울", "address"=>"서울 동작구 사당동 200-1", "road_address"=>"서울 동작구 사당로 143", "Lat"=>"37.48956072659452", "Lng"=>"126.96738949301826"}
{"name"=>"추계예술대학교", "area"=>"서울", "address"=>"서울 서대문구 북아현동 190-1", "road_address"=>"서울 서대문구 북아현로11가길 7", "Lat"=>"37.5624038691571", "Lng"=>"126.95343162530287"}
{"name"=>"충남대학교 대덕캠퍼스", "area"=>"대전", "address"=>"대전 유성구 궁동 220", "road_address"=>"대전 유성구 대학로 99", "Lat"=>"36.37068088775195", "Lng"=>"127.346298137851"}
{"name"=>"충북대학교", "area"=>"충북", "address"=>"충북 청주시 서원구 개신동 12", "road_address"=>"충북 청주시 서원구 충대로 1", "Lat"=>"36.629470784245434", "Lng"=>"127.45642990518206"}
{"name"=>"침례신학대학교", "area"=>"대전", "address"=>"대전 유성구 하기동 산14", "road_address"=>"대전 유성구 북유성대로 190", "Lat"=>"36.385537529615156", "Lng"=>"127.32648510038402"}
{"name"=>"칼빈대학교", "area"=>"경기", "address"=>"경기 용인시 기흥구 마북동 142-12", "road_address"=>"경기 용인시 기흥구 마북로 184", "Lat"=>"37.304786749986945", "Lng"=>"127.12779855584388"}
{"name"=>"평택대학교", "area"=>"경기", "address"=>"경기 평택시 용이동 111", "road_address"=>"경기 평택시 서동대로 3825", "Lat"=>"36.995281121223364", "Lng"=>"127.13352476522277"}
{"name"=>"포항공과대학교", "area"=>"경북", "address"=>"경북 포항시 남구 효자동 산27", "road_address"=>"경북 포항시 남구 청암로 77", "Lat"=>"36.01337230130159", "Lng"=>"129.32302726338415"}
{"name"=>"한경대학교", "area"=>"경기", "address"=>"경기 안성시 석정동 63-1", "road_address"=>"경기 안성시 중앙로 327", "Lat"=>"37.0115779679426", "Lng"=>"127.26384785130303"}
{"name"=>"KAIST(한국과학기술원) 본교", "area"=>"대전", "address"=>"대전 유성구 구성동 23", "road_address"=>"대전 유성구 대학로 291", "Lat"=>"36.37317934461339", "Lng"=>"127.36077808025004"}
{"name"=>"한국교원대학교", "area"=>"충북", "address"=>"충북 청주시 흥덕구 강내면 다락리 산7", "road_address"=>"충북 청주시 흥덕구 강내면 태성탑연로 250", "Lat"=>"36.610924588154376", "Lng"=>"127.35867662999732"}
{"name"=>"한국교통대학교 충주캠퍼스", "area"=>"충북", "address"=>"충북 충주시 대소원면 검단리 123", "road_address"=>"충북 충주시 대소원면 대학로 50", "Lat"=>"36.970460034622974", "Lng"=>"127.87241515236937"}
{"name"=>"한국국제대학교", "area"=>"경남", "address"=>"경남 진주시 문산읍 상문리 산270", "road_address"=>"경남 진주시 문산읍 동부로 965", "Lat"=>"35.173054700141755", "Lng"=>"128.20304952956954"}
{"name"=>"한국기술교육대학교 제1캠퍼스", "area"=>"충남", "address"=>"충남 천안시 동남구 병천면 가전리 307", "road_address"=>"충남 천안시 동남구 병천면 충절로 1600", "Lat"=>"36.763864675185324", "Lng"=>"127.28191567917682"}
{"name"=>"한국산업기술대학교", "area"=>"경기", "address"=>"경기 시흥시 정왕동 2121-1", "road_address"=>"경기 시흥시 산기대학로 237", "Lat"=>"37.34013596987084", "Lng"=>"126.73366646308682"}
{"name"=>"한국성서대학교", "area"=>"서울", "address"=>"서울 노원구 상계동 205-4", "road_address"=>"서울 노원구 동일로214길 32", "Lat"=>"37.64894459831434", "Lng"=>"127.06434936569644"}
{"name"=>"한국외국어대학교 서울캠퍼스", "area"=>"서울", "address"=>"서울 동대문구 이문동 270-1", "road_address"=>"서울 동대문구 이문로 107", "Lat"=>"37.59760916513024", "Lng"=>"127.0589648651963"}
{"name"=>"한국전통문화대학교 일반대학원", "area"=>"충남", "address"=>"충남 부여군 규암면 합정리 430", "road_address"=>"충남 부여군 규암면 백제문로 367", "Lat"=>"36.308614269499664", "Lng"=>"126.89689024583646"}
{"name"=>"한국체육대학교", "area"=>"서울", "address"=>"서울 송파구 오륜동 88-15", "road_address"=>"서울 송파구 양재대로 1239", "Lat"=>"37.520163010653135", "Lng"=>"127.13081199073149"}
{"name"=>"한국항공대학교", "area"=>"경기", "address"=>"경기 고양시 덕양구 현천동 188-8", "road_address"=>"경기 고양시 덕양구 항공대학로 76", "Lat"=>"37.59980625103607", "Lng"=>"126.86489503685864"}
{"name"=>"한국해양대학교 아치캠퍼스", "area"=>"부산", "address"=>"부산 영도구 동삼동 1", "road_address"=>"부산 영도구 태종로 727", "Lat"=>"35.076419236659156", "Lng"=>"129.08922829351948"}
{"name"=>"한남대학교", "area"=>"대전", "address"=>"대전 대덕구 오정동 133", "road_address"=>"대전 대덕구 한남로 70", "Lat"=>"36.354061095468154", "Lng"=>"127.42208051147158"}
{"name"=>"한동대학교", "area"=>"경북", "address"=>"경북 포항시 북구 흥해읍 남송리 3", "road_address"=>"경북 포항시 북구 흥해읍 한동로 558", "Lat"=>"36.1036654677773", "Lng"=>"129.38812063589265"}
{"name"=>"한라대학교", "area"=>"강원", "address"=>"강원 원주시 흥업면 흥업리 산66", "road_address"=>"강원 원주시 흥업면 한라대길 28", "Lat"=>"37.30284004385416", "Lng"=>"127.9069641841309"}
{"name"=>"한려대학교", "area"=>"전남", "address"=>"전남 광양시 광양읍 덕례리 1268-1", "road_address"=>"전남 광양시 광양읍 한려대길 94-13", "Lat"=>"34.956061826293116", "Lng"=>"127.5639132591323"}
{"name"=>"한림대학교", "area"=>"강원", "address"=>"강원 춘천시 옥천동 1-1", "road_address"=>"강원 춘천시 한림대학길 1", "Lat"=>"37.8863050920671", "Lng"=>"127.73921463350511"}
{"name"=>"한밭대학교 유성덕명캠퍼스", "area"=>"대전", "address"=>"대전 유성구 덕명동 16-1", "road_address"=>"대전 유성구 동서대로 125", "Lat"=>"36.350769231919024", "Lng"=>"127.30077480481934"}
{"name"=>"한서대학교 서산캠퍼스", "area"=>"충남", "address"=>"충남 서산시 해미면 대곡리 360", "road_address"=>"충남 서산시 해미면 한서1로 46", "Lat"=>"36.6905798849474", "Lng"=>"126.58446604439015"}
{"name"=>"한성대학교", "area"=>"서울", "address"=>"서울 성북구 삼선동2가 389", "road_address"=>"서울 성북구 삼선교로14길 102-43", "Lat"=>"37.582475977655925", "Lng"=>"127.01011229783312"}
{"name"=>"한세대학교", "area"=>"경기", "address"=>"경기 군포시 당정동 604-5", "road_address"=>"경기 군포시 한세로 30", "Lat"=>"37.342470285874406", "Lng"=>"126.9538476508992"}
{"name"=>"한신대학교 오산캠퍼스", "area"=>"경기", "address"=>"경기 오산시 양산동 400", "road_address"=>"경기 오산시 한신대길 137", "Lat"=>"37.193574451085546", "Lng"=>"127.02341372802763"}
{"name"=>"한양대학교 서울캠퍼스", "area"=>"서울", "address"=>"서울 성동구 사근동 110", "road_address"=>"서울 성동구 왕십리로 222", "Lat"=>"37.55770114763559", "Lng"=>"127.04532955770931"}
{"name"=>"한양대학교 ERICA캠퍼스", "area"=>"경기", "address"=>"경기 안산시 상록구 사1동 1271", "road_address"=>"경기 안산시 상록구 한양대학로 55", "Lat"=>"37.29545737470954", "Lng"=>"126.83565762007755"}
{"name"=>"한영신학대학교", "area"=>"서울", "address"=>"서울 구로구 개봉동 415-9", "road_address"=>"서울 구로구 경인로 290-42", "Lat"=>"37.49648905953333", "Lng"=>"126.85159721958406"}
{"name"=>"한일장신대학교", "area"=>"전북", "address"=>"전북 완주군 상관면 신리 694-1", "road_address"=>"전북 완주군 상관면 왜목로 726-15", "Lat"=>"35.763761368126886", "Lng"=>"127.20632543915674"}
{"name"=>"한중대학교", "area"=>"강원", "address"=>"강원 동해시 지흥동 산119", "road_address"=>"강원 동해시 지양길 200", "Lat"=>"37.50487985858075", "Lng"=>"129.08816979169328"}
{"name"=>"협성대학교", "area"=>"경기", "address"=>"경기 화성시 봉담읍 상리 14", "road_address"=>"경기 화성시 봉담읍 최루백로 72", "Lat"=>"37.21318504317712", "Lng"=>"126.95277738374492"}
{"name"=>"호남대학교 광산캠퍼스", "area"=>"광주", "address"=>"광주 광산구 서봉동 59-1", "road_address"=>"광주 광산구 어등대로 417", "Lat"=>"35.15130971864137", "Lng"=>"126.76856864068003"}
{"name"=>"호남신학대학교", "area"=>"광주", "address"=>"광주 남구 양림동 108", "road_address"=>"광주 남구 제중로 77", "Lat"=>"35.14024571631795", "Lng"=>"126.91135510425826"}
{"name"=>"호서대학교 천안캠퍼스", "area"=>"충남", "address"=>"충남 천안시 동남구 안서동 268", "road_address"=>"충남 천안시 동남구 호서대길 12", "Lat"=>"36.828427834305366", "Lng"=>"127.18191415333467"}
{"name"=>"홍익대학교 서울캠퍼스", "area"=>"서울", "address"=>"서울 마포구 상수동 72-1", "road_address"=>"서울 마포구 와우산로 94", "Lat"=>"37.550820791853425", "Lng"=>"126.92557727845312"}
{"name"=>"홍익대학교 세종캠퍼스", "area"=>"세종시", "address"=>"세종특별자치시 조치원읍 신안리 300", "road_address"=>"세종특별자치시 조치원읍 세종로 2639", "Lat"=>"36.6213894816246", "Lng"=>"127.28793364753201"}
{"name"=>"청운대학교 홍성캠퍼스", "area"=>"충남", "address"=>"충남 홍성군 홍성읍 남장리 392-1", "road_address"=>"충남 홍성군 홍성읍 대학길 25", "Lat"=>"36.581243483622686", "Lng"=>"126.6631506160211"}
{"name"=>"호원대학교", "area"=>"전북", "address"=>"전북 군산시 임피면 월하리 727", "road_address"=>"전북 군산시 임피면 호원대3길 64", "Lat"=>"35.96657578395599", "Lng"=>"126.86475649758096"}
{"name"=>"공주교육대학교", "area"=>"충남", "address"=>"충남 공주시 봉황동 376", "road_address"=>"충남 공주시 웅진로 27", "Lat"=>"36.44480342533638", "Lng"=>"127.11887836370512"}
{"name"=>"광주교육대학교", "area"=>"광주", "address"=>"광주 북구 풍향동 1-1", "road_address"=>"광주 북구 필문대로 55", "Lat"=>"35.16483784896631", "Lng"=>"126.92666022958626"}
{"name"=>"대구교육대학교", "area"=>"대구", "address"=>"대구 남구 대명동 1797-6", "road_address"=>"대구 남구 중앙대로 219", "Lat"=>"35.85245519439995", "Lng"=>"128.5885846282224"}
{"name"=>"부산교육대학교", "area"=>"부산", "address"=>"부산 연제구 거제동 87-2", "road_address"=>"부산 연제구 교대로 24", "Lat"=>"35.19657772974107", "Lng"=>"129.07446862458033"}
{"name"=>"서울교육대학교", "area"=>"서울", "address"=>"서울 서초구 서초동 1650", "road_address"=>"서울 서초구 서초중앙로 96", "Lat"=>"37.48978028830041", "Lng"=>"127.01670332261206"}
{"name"=>"전주교육대학교", "area"=>"전북", "address"=>"전북 전주시 완산구 동서학동 128", "road_address"=>"전북 전주시 완산구 서학로 50", "Lat"=>"35.80872488057989", "Lng"=>"127.1551344643683"}
{"name"=>"진주교육대학교", "area"=>"경남", "address"=>"경남 진주시 신안동 380", "road_address"=>"경남 진주시 진양호로369번길 3", "Lat"=>"35.18634194078544", "Lng"=>"128.0670324207846"}
{"name"=>"청주교육대학교", "area"=>"충북", "address"=>"충북 청주시 서원구 수곡동 135-1", "road_address"=>"충북 청주시 서원구 청남로 2065", "Lat"=>"36.61604292158752", "Lng"=>"127.48497196278664"}
{"name"=>"춘천교육대학교", "area"=>"강원", "address"=>"강원 춘천시 석사동 339", "road_address"=>"강원 춘천시 공지로 126", "Lat"=>"37.85974752217679", "Lng"=>"127.74861733924146"}
{"name"=>"순복음총회신학교", "area"=>"충북", "address"=>"서울 동작구 사당1동 1033-37", "road_address"=>"서울 동작구 동작대로7길 44", "Lat"=>"37.47900004681161", "Lng"=>"126.97962695446508"}
{"name"=>"한국예술종합학교 석관동캠퍼스", "area"=>"서울", "address"=>"서울 성북구 석관동 산1-5", "road_address"=>"서울 성북구 화랑로32길 146-37", "Lat"=>"37.6061549320677", "Lng"=>"127.05739516861088"}
{"name"=>"정석대학", "area"=>"서울", "address"=>"서울 강서구 공항동 369-2", "road_address"=>"서울 강서구 오정로 576", "Lat"=>"37.54552325081448", "Lng"=>"126.81452901487822"}
{"name"=>"강동대학교", "area"=>"충북", "address"=>"충북 음성군 감곡면 단평리 154-1", "road_address"=>"충북 음성군 감곡면 대학길 278", "Lat"=>"37.14227233592518", "Lng"=>"127.6487039651851"}
{"name"=>"강원관광대학교", "area"=>"강원", "address"=>"강원 태백시 황지동 439", "road_address"=>"강원 태백시 대학길 97", "Lat"=>"37.16166383174151", "Lng"=>"128.97415525211625"}
{"name"=>"경기과학기술대학교", "area"=>"경기", "address"=>"경기 시흥시 정왕동 2121-3", "road_address"=>"경기 시흥시 경기과기대로 269", "Lat"=>"37.33891592258094", "Lng"=>"126.73605410684416"}
{"name"=>"경남도립거창대학", "area"=>"경남", "address"=>"경남 거창군 거창읍 대평리 1396", "road_address"=>"경남 거창군 거창읍 거창대학로 72", "Lat"=>"35.67553082990486", "Lng"=>"127.91283583795814"}
{"name"=>"경남도립남해대학", "area"=>"경남", "address"=>"경남 남해군 남해읍 남변리 195", "road_address"=>"경남 남해군 남해읍 화전로78번길 30", "Lat"=>"34.83735874187463", "Lng"=>"127.89881085500932"}
{"name"=>"경북과학대학교", "area"=>"경북", "address"=>"경북 칠곡군 기산면 봉산리 123", "road_address"=>"경북 칠곡군 기산면 지산로 634", "Lat"=>"35.98310670017699", "Lng"=>"128.3475778801072"}
{"name"=>"경북도립대학교", "area"=>"경북", "address"=>"경북 예천군 예천읍 청복리 927", "road_address"=>"경북 예천군 예천읍 도립대학길 114", "Lat"=>"36.64144013104073", "Lng"=>"128.4554513644284"}
{"name"=>"호산대학교", "area"=>"경북", "address"=>"경북 경산시 하양읍 부호리 224-1", "road_address"=>"경북 경산시 하양읍 대경로105길 19", "Lat"=>"35.90171799839626", "Lng"=>"128.80012187941142"}
{"name"=>"계명문화대학교", "area"=>"대구", "address"=>"대구 달서구 신당동 700", "road_address"=>"대구 달서구 달서대로 675", "Lat"=>"35.85988477097078", "Lng"=>"128.49096599782888"}
{"name"=>"계원예술대학교", "area"=>"경기", "address"=>"경기 의왕시 내손동 768", "road_address"=>"경기 의왕시 계원대학로 66", "Lat"=>"37.37845393751353", "Lng"=>"126.98070195891857"}
{"name"=>"구미대학교", "area"=>"경북", "address"=>"경북 구미시 부곡동 407", "road_address"=>"경북 구미시 야은로 37", "Lat"=>"36.151197377330156", "Lng"=>"128.28915842318958"}
{"name"=>"연세대학교 국제캠퍼스", "area"=>"경기", "address"=>"인천 연수구 송도동 162-1", "road_address"=>"인천 연수구 송도과학로 85", "Lat"=>"37.382019211844685", "Lng"=>"126.67199502494434"}
{"name"=>"경북보건대학교", "area"=>"경북", "address"=>"경북 김천시 삼락동 480", "road_address"=>"경북 김천시 대학로 168", "Lat"=>"36.138430266595854", "Lng"=>"128.0843407600106"}
{"name"=>"대경대학교", "area"=>"경북", "address"=>"경북 경산시 자인면 단북리 산21", "road_address"=>"경북 경산시 자인면 단북1길 65", "Lat"=>"35.834981140355346", "Lng"=>"128.82214820792743"}
{"name"=>"대구공업대학교", "area"=>"대구", "address"=>"대구 달서구 본동 831", "road_address"=>"대구 달서구 송현로 205", "Lat"=>"35.83546217880158", "Lng"=>"128.54273952254792"}
{"name"=>"대구과학대학교", "area"=>"대구", "address"=>"대구 북구 태전동 390", "road_address"=>"대구 북구 영송로 47", "Lat"=>"35.92984651120773", "Lng"=>"128.5431709445585"}
{"name"=>"대덕대학교", "area"=>"대전", "address"=>"대전 유성구 장동 48", "road_address"=>"대전 유성구 가정북로 68", "Lat"=>"36.39152682192625", "Lng"=>"127.36563788653645"}
{"name"=>"대동대학교", "area"=>"부산", "address"=>"부산 금정구 부곡동 373-4", "road_address"=>"부산 금정구 동부곡로27번길 88", "Lat"=>"35.22889736621472", "Lng"=>"129.09576277471226"}
{"name"=>"대원대학교", "area"=>"충북", "address"=>"충북 제천시 신월동 599", "road_address"=>"충북 제천시 대학로 316", "Lat"=>"37.17684851760032", "Lng"=>"128.19152079222874"}
{"name"=>"대전과학기술대학교", "area"=>"대전", "address"=>"대전 서구 복수동 333", "road_address"=>"대전 서구 혜천로 100", "Lat"=>"36.30301689780271", "Lng"=>"127.37495952999754"}
{"name"=>"대전보건대학교", "area"=>"대전", "address"=>"대전 동구 가양2동 77-3", "road_address"=>"대전 동구 충정로 21", "Lat"=>"36.34928171128122", "Lng"=>"127.45439686382065"}
{"name"=>"동강대학교", "area"=>"광주", "address"=>"광주 북구 두암동 771", "road_address"=>"광주 북구 동문대로 50", "Lat"=>"35.169173352322375", "Lng"=>"126.9236925581299"}
{"name"=>"동서울대학교", "area"=>"경기", "address"=>"경기 성남시 수정구 복정동 423-8", "road_address"=>"경기 성남시 수정구 복정로 76", "Lat"=>"37.459311681762216", "Lng"=>"127.12835945252365"}
{"name"=>"동원과학기술대학교", "area"=>"경남", "address"=>"경남 양산시 명곡동 922-2", "road_address"=>"경남 양산시 명곡로 321", "Lat"=>"35.34401265291195", "Lng"=>"129.0679247530499"}
{"name"=>"동의과학대학교", "area"=>"부산", "address"=>"부산 부산진구 양정동 429-19", "road_address"=>"부산 부산진구 양지로 54", "Lat"=>"35.16558544754532", "Lng"=>"129.07276792087876"}
{"name"=>"두원공과대학교 안성캠퍼스", "area"=>"경기", "address"=>"경기 안성시 죽산면 장원리 871", "road_address"=>"경기 안성시 죽산면 관음당길 51", "Lat"=>"37.065140638523346", "Lng"=>"127.42236710174456"}
{"name"=>"문경대학교", "area"=>"경북", "address"=>"경북 문경시 호계면 별암리 산6", "road_address"=>"경북 문경시 호계면 대학길 161", "Lat"=>"36.6575372336858", "Lng"=>"128.17322366130756"}
{"name"=>"백석문화대학교", "area"=>"충남", "address"=>"충남 천안시 동남구 안서동 393", "road_address"=>"충남 천안시 동남구 문암로 58", "Lat"=>"36.83817708374014", "Lng"=>"127.18238566985472"}
{"name"=>"백제예술대학교", "area"=>"전북", "address"=>"전북 완주군 봉동읍 제내리 1234", "road_address"=>"전북 완주군 봉동읍 백제대학로 171", "Lat"=>"35.99571851825126", "Lng"=>"127.12834181699338"}
{"name"=>"부산경상대학교", "area"=>"부산", "address"=>"부산 연제구 연산8동 277-4", "road_address"=>"부산 연제구 고분로 170", "Lat"=>"35.184165986921954", "Lng"=>"129.10003564893447"}
{"name"=>"부산과학기술대학교", "area"=>"부산", "address"=>"부산 북구 구포동 870", "road_address"=>"부산 북구 시랑로132번길 88", "Lat"=>"35.19492338673778", "Lng"=>"129.00406150387388"}
{"name"=>"부산여자대학교", "area"=>"부산", "address"=>"부산 부산진구 양정동 74-161", "road_address"=>"부산 부산진구 진남로 506", "Lat"=>"35.16844778349763", "Lng"=>"129.07296349762834"}
{"name"=>"부산예술대학교", "area"=>"부산", "address"=>"부산 남구 대연5동 1552", "road_address"=>"부산 남구 못골번영로71번길 74", "Lat"=>"35.14247821359142", "Lng"=>"129.08440769303598"}
{"name"=>"부천대학교", "area"=>"경기", "address"=>"경기 부천시 원미구 심곡동 424", "road_address"=>"경기 부천시 원미구 신흥로56번길 25", "Lat"=>"37.489952712873624", "Lng"=>"126.77874506227796"}
{"name"=>"상지영서대학교", "area"=>"강원", "address"=>"강원 원주시 우산동 650", "road_address"=>"강원 원주시 상지대길 84", "Lat"=>"37.37207563510336", "Lng"=>"127.93028098317026"}
{"name"=>"서일대학교", "area"=>"서울", "address"=>"서울 중랑구 면목동 49-3", "road_address"=>"서울 중랑구 용마산로90길 28", "Lat"=>"37.58641455759754", "Lng"=>"127.09794906999011"}
{"name"=>"세경대학교", "area"=>"강원", "address"=>"강원 영월군 영월읍 하송리 산57", "road_address"=>"강원 영월군 영월읍 하송로 197", "Lat"=>"37.175035040519695", "Lng"=>"128.45283492049518"}
{"name"=>"송곡대학교", "area"=>"강원", "address"=>"강원 춘천시 남산면 창촌리 1", "road_address"=>"강원 춘천시 남산면 송곡대학길 34", "Lat"=>"37.79181781336959", "Lng"=>"127.65206599980726"}
{"name"=>"송호대학교", "area"=>"강원", "address"=>"강원 횡성군 횡성읍 남산리 66", "road_address"=>"강원 횡성군 횡성읍 남산로 210", "Lat"=>"37.47272564889502", "Lng"=>"128.0018089860989"}
{"name"=>"수원여자대학교 인제캠퍼스", "area"=>"경기", "address"=>"경기 수원시 권선구 오목천동 산1-6", "road_address"=>"경기 수원시 권선구 온정로 72", "Lat"=>"37.25229791397064", "Lng"=>"126.96363706553085"}
{"name"=>"순천제일대학교", "area"=>"전남", "address"=>"전남 순천시 덕월동 535", "road_address"=>"전남 순천시 제일대학길 17", "Lat"=>"34.93373189464719", "Lng"=>"127.48478753755066"}
{"name"=>"숭의여자대학교", "area"=>"서울", "address"=>"서울 중구 예장동 8-3", "road_address"=>"서울 중구 소파로2길 10", "Lat"=>"37.557359575891056", "Lng"=>"126.98726993532223"}
{"name"=>"신구대학교", "area"=>"경기", "address"=>"경기 성남시 중원구 금광2동 2685", "road_address"=>"경기 성남시 중원구 광명로 377", "Lat"=>"37.44875191587247", "Lng"=>"127.16846078494855"}
{"name"=>"신안산대학교", "area"=>"경기", "address"=>"경기 안산시 단원구 초지동 671", "road_address"=>"경기 안산시 단원구 신안산대학로 135", "Lat"=>"37.312149437935396", "Lng"=>"126.80780296677288"}
{"name"=>"아주자동차대학", "area"=>"충남", "address"=>"충남 보령시 주포면 관산리 301-2", "road_address"=>"충남 보령시 주포면 대학길 106", "Lat"=>"36.403009434782845", "Lng"=>"126.5800851470137"}
{"name"=>"여주대학교", "area"=>"경기", "address"=>"경기 여주시 교동 454-4", "road_address"=>"경기 여주시 세종로 338", "Lat"=>"37.26927709217831", "Lng"=>"127.63234405718029"}
{"name"=>"영남외국어대학", "area"=>"경북", "address"=>"경북 경산시 남천면 협석리 220-1", "road_address"=>"경북 경산시 남천면 남천로 780-9", "Lat"=>"35.78553091191224", "Lng"=>"128.73396359041513"}
{"name"=>"영남이공대학교", "area"=>"대구", "address"=>"대구 남구 대명3동 1737", "road_address"=>"대구 남구 현충로 170", "Lat"=>"35.84797110525929", "Lng"=>"128.58230130050214"}
{"name"=>"영진전문대학 복현캠퍼스", "area"=>"대구", "address"=>"대구 북구 복현2동 218", "road_address"=>"대구 북구 복현로 35", "Lat"=>"35.89635821351124", "Lng"=>"128.62233241320058"}
{"name"=>"유한대학교", "area"=>"경기", "address"=>"경기 부천시 소사구 괴안동 185-34", "road_address"=>"경기 부천시 소사구 경인로 590", "Lat"=>"37.487346210831525", "Lng"=>"126.82081040172073"}
{"name"=>"인덕대학교", "area"=>"서울", "address"=>"서울 노원구 월계동 648", "road_address"=>"서울 노원구 초안산로 12", "Lat"=>"37.630850378740696", "Lng"=>"127.05493542279076"}
{"name"=>"인천재능대학교", "area"=>"인천", "address"=>"인천 동구 송림동 122-1", "road_address"=>"인천 동구 재능로 178", "Lat"=>"37.47552795486889", "Lng"=>"126.64994407809088"}
{"name"=>"장안대학교", "area"=>"경기", "address"=>"경기 화성시 봉담읍 상리 460", "road_address"=>"경기 화성시 봉담읍 삼천병마로 1182", "Lat"=>"37.21364071626409", "Lng"=>"126.94786508929388"}
{"name"=>"전남과학대학교 곡성캠퍼스", "area"=>"전남", "address"=>"전남 곡성군 옥과면 옥과리 285", "road_address"=>"전남 곡성군 옥과면 대학로 113", "Lat"=>"35.27741000968948", "Lng"=>"127.13197326459435"}
{"name"=>"전남도립대학교", "area"=>"전남", "address"=>"전남 담양군 담양읍 향교리 53", "road_address"=>"전남 담양군 담양읍 죽녹원로 152", "Lat"=>"35.32779792131058", "Lng"=>"126.99036543392552"}
{"name"=>"전북과학대학교", "area"=>"전북", "address"=>"전북 정읍시 시기동 산9-28", "road_address"=>"전북 정읍시 정읍사로 509", "Lat"=>"35.54903118970011", "Lng"=>"126.86078958765347"}
{"name"=>"전주비전대학", "area"=>"전북", "address"=>"전북 전주시 완산구 효자동3가 1200", "road_address"=>"전북 전주시 완산구 천잠로 235", "Lat"=>"35.80947920344449", "Lng"=>"127.09086073903381"}
{"name"=>"제주관광대학교", "area"=>"제주", "address"=>"제주특별자치도 제주시 애월읍 광령리 2535", "road_address"=>"제주특별자치도 제주시 애월읍 평화로 2715", "Lat"=>"33.448530856394", "Lng"=>"126.43471846616352"}
{"name"=>"조선이공대학교", "area"=>"광주", "address"=>"광주 동구 서석동 290", "road_address"=>"광주 동구 필문대로 309-1", "Lat"=>"35.139804623483364", "Lng"=>"126.93173466515447"}
{"name"=>"천안연암대학", "area"=>"충남", "address"=>"충남 천안시 서북구 성환읍 수향리 72-3", "road_address"=>"충남 천안시 서북구 성환읍 연암로 313", "Lat"=>"36.94958139530841", "Lng"=>"127.1572822588916"}
{"name"=>"충북도립대학", "area"=>"충북", "address"=>"충북 옥천군 옥천읍 금구리 480-1", "road_address"=>"충북 옥천군 옥천읍 대학길 15", "Lat"=>"36.300641521772064", "Lng"=>"127.57387231942285"}
{"name"=>"충북보건과학대학교", "area"=>"충북", "address"=>"충북 청주시 청원구 내수읍 덕암리 산4", "road_address"=>"충북 청주시 청원구 내수읍 덕암길 10", "Lat"=>"36.702259113032135", "Lng"=>"127.55197338746494"}
{"name"=>"충청대학교", "area"=>"충북", "address"=>"충북 청주시 흥덕구 강내면 월곡리 301-3", "road_address"=>"충북 청주시 흥덕구 강내면 월곡길 20-15", "Lat"=>"36.62084595156589", "Lng"=>"127.36642278821576"}
{"name"=>"한국관광대학교", "area"=>"경기", "address"=>"경기 이천시 신둔면 고척리 363-10", "road_address"=>"경기 이천시 신둔면 이장로311번길 197-73", "Lat"=>"37.282368313006806", "Lng"=>"127.37671394539909"}
{"name"=>"한국승강기대학교", "area"=>"경남", "address"=>"경남 거창군 거창읍 송정리 700", "road_address"=>"경남 거창군 거창읍 운정1길 120", "Lat"=>"35.67515811455866", "Lng"=>"127.89622818776222"}
{"name"=>"한국영상대학교", "area"=>"세종시", "address"=>"세종특별자치시 장군면 금암리 180-1", "road_address"=>"세종특별자치시 장군면 대학길 300", "Lat"=>"36.46219896942754", "Lng"=>"127.21065951428582"}
{"name"=>"한양여자대학교", "area"=>"서울", "address"=>"서울 성동구 사근동 110", "road_address"=>"서울 성동구 왕십리로 222-1", "Lat"=>"37.55895369695668", "Lng"=>"127.04941380225623"}
{"name"=>"한영대학", "area"=>"전남", "address"=>"전남 여수시 여서동 61", "road_address"=>"전남 여수시 장군산길 18-43", "Lat"=>"34.75394281262846", "Lng"=>"127.71473322139124"}
{"name"=>"가톨릭상지대학교", "area"=>"경북", "address"=>"경북 안동시 율세동 383", "road_address"=>"경북 안동시 상지길 45", "Lat"=>"36.569359033618724", "Lng"=>"128.7359744847574"}
{"name"=>"강릉영동대학교", "area"=>"강원", "address"=>"강원 강릉시 홍제동 1009", "road_address"=>"강원 강릉시 공제로 357", "Lat"=>"37.74770240381236", "Lng"=>"128.8555735117909"}
{"name"=>"강원도립대학", "area"=>"강원", "address"=>"강원 강릉시 주문진읍 교항리 8-2", "road_address"=>"강원 강릉시 주문진읍 연주로 270", "Lat"=>"37.87694793621476", "Lng"=>"128.83070901908533"}
{"name"=>"거제대학교", "area"=>"경남", "address"=>"경남 거제시 장승포동 654-1", "road_address"=>"경남 거제시 마전1길 91", "Lat"=>"34.85039367106424", "Lng"=>"128.72611832907376"}
{"name"=>"경남정보대학교 냉정캠퍼스", "area"=>"부산", "address"=>"부산 사상구 주례동 81", "road_address"=>"부산 사상구 주례로 45", "Lat"=>"35.14742062149424", "Lng"=>"129.01212083351"}
{"name"=>"경민대학교", "area"=>"경기", "address"=>"경기 의정부시 가능동 562-1", "road_address"=>"경기 의정부시 서부로 545", "Lat"=>"37.74594068741971", "Lng"=>"127.02431280997223"}
{"name"=>"경복대학교 포천캠퍼스", "area"=>"경기", "address"=>"경기 포천시 신북면 신평리 131", "road_address"=>"경기 포천시 신북면 신평로 154", "Lat"=>"37.947520448822075", "Lng"=>"127.22282478261683"}
{"name"=>"경북전문대학교", "area"=>"경북", "address"=>"경북 영주시 휴천2동 630", "road_address"=>"경북 영주시 대학로 77", "Lat"=>"36.80466023687477", "Lng"=>"128.61363991303404"}
{"name"=>"경인여자대학교", "area"=>"인천", "address"=>"인천 계양구 계산동 548-4", "road_address"=>"인천 계양구 계양산로 63", "Lat"=>"37.548572918928386", "Lng"=>"126.72288681312831"}
{"name"=>"고구려대학", "area"=>"전남", "address"=>"전남 나주시 다시면 복암리 837-8", "road_address"=>"전남 나주시 다시면 백호로 125", "Lat"=>"35.00793202453764", "Lng"=>"126.64889838137991"}
{"name"=>"광양보건대학교", "area"=>"전남", "address"=>"전남 광양시 광양읍 덕례리 654-1", "road_address"=>"전남 광양시 광양읍 한려대길 111", "Lat"=>"34.954349733164165", "Lng"=>"127.56844278781935"}
{"name"=>"광주보건대학교", "area"=>"광주", "address"=>"광주 광산구 신창동 683-3", "road_address"=>"광주 광산구 북문대로419번길 73", "Lat"=>"35.19052188476065", "Lng"=>"126.8451888164365"}
{"name"=>"군산간호대학교", "area"=>"전북", "address"=>"전북 군산시 개정동 413-11", "road_address"=>"전북 군산시 동개정길 7", "Lat"=>"35.970860725665496", "Lng"=>"126.7601115637721"}
{"name"=>"군장대학교", "area"=>"전북", "address"=>"전북 군산시 성산면 도암리 608-8", "road_address"=>"전북 군산시 성산면 군장대길 13", "Lat"=>"36.0001206659949", "Lng"=>"126.78409029448174"}
{"name"=>"기독간호대학교", "area"=>"광주", "address"=>"광주 남구 양림동 67-1", "road_address"=>"광주 남구 백서로70번길 6", "Lat"=>"35.13853645213373", "Lng"=>"126.91602261032317"}
{"name"=>"김포대학교", "area"=>"경기", "address"=>"경기 김포시 월곶면 포내리 111-13", "road_address"=>"경기 김포시 월곶면 김포대학로 97", "Lat"=>"37.729931649433695", "Lng"=>"126.54666968727257"}
{"name"=>"김해대학교", "area"=>"경남", "address"=>"경남 김해시 삼방동 산77-9", "road_address"=>"경남 김해시 삼안로112번길 198", "Lat"=>"35.253242210843545", "Lng"=>"128.91283065790944"}
{"name"=>"농협대학교", "area"=>"경기", "address"=>"경기 고양시 덕양구 원당동 198-201", "road_address"=>"경기 고양시 덕양구 서삼릉길 281", "Lat"=>"37.6586253267327", "Lng"=>"126.87386849811236"}
{"name"=>"대구미래대학교", "area"=>"경북", "address"=>"경북 경산시 평산동 270", "road_address"=>"경북 경산시 미래로 114", "Lat"=>"35.81233029809011", "Lng"=>"128.7659168475816"}
{"name"=>"대구보건대학교", "area"=>"대구", "address"=>"대구 북구 태전동 산6-6", "road_address"=>"대구 북구 영송로 15", "Lat"=>"35.92739024935888", "Lng"=>"128.54329161440506"}
{"name"=>"대림대학교", "area"=>"경기", "address"=>"경기 안양시 동안구 비산동 526-7", "road_address"=>"경기 안양시 동안구 임곡로 29", "Lat"=>"37.40314132450192", "Lng"=>"126.93082864542129"}
{"name"=>"동남보건대학교", "area"=>"경기", "address"=>"경기 수원시 장안구 정자동 937", "road_address"=>"경기 수원시 장안구 천천로74번길 50", "Lat"=>"37.2989226011249", "Lng"=>"126.98688502596639"}
{"name"=>"동부산대학교", "area"=>"부산", "address"=>"부산 해운대구 반송동 640-5", "road_address"=>"부산 해운대구 운봉길 60", "Lat"=>"35.23307365627167", "Lng"=>"129.14804837435798"}
{"name"=>"동아방송예술대학교", "area"=>"경기", "address"=>"경기 안성시 삼죽면 진촌리 632-18", "road_address"=>"경기 안성시 삼죽면 동아예대길 47", "Lat"=>"37.06017975577031", "Lng"=>"127.3569621940398"}
{"name"=>"동아인재대학교", "area"=>"전남", "address"=>"전남 영암군 학산면 독천리 산22-1", "road_address"=>"전남 영암군 학산면 영산로 76-57", "Lat"=>"34.73035964350534", "Lng"=>"126.56817854103977"}
{"name"=>"동양미래대학교", "area"=>"서울", "address"=>"서울 구로구 고척동 62-160", "road_address"=>"서울 구로구 경인로 445", "Lat"=>"37.500544663123236", "Lng"=>"126.86767064178865"}
{"name"=>"동원대학교", "area"=>"경기", "address"=>"경기 광주시 곤지암읍 신촌리 산1-1", "road_address"=>"경기 광주시 곤지암읍 경충대로 26", "Lat"=>"37.32855095205409", "Lng"=>"127.40313934813894"}
{"name"=>"동주대학교", "area"=>"부산", "address"=>"부산 사하구 괴정동 15-1", "road_address"=>"부산 사하구 사리로55번길 16", "Lat"=>"35.10459937863389", "Lng"=>"128.99692574682032"}
{"name"=>"마산대학교", "area"=>"경남", "address"=>"경남 창원시 마산회원구 내서읍 용담리 181-1", "road_address"=>"경남 창원시 마산회원구 내서읍 함마대로 2640", "Lat"=>"35.25946221332308", "Lng"=>"128.50404512042843"}
{"name"=>"명지전문대학", "area"=>"서울", "address"=>"서울 서대문구 홍은2동 356-1", "road_address"=>"서울 서대문구 가좌로 134", "Lat"=>"37.584691090053404", "Lng"=>"126.92569301953121"}
{"name"=>"목포과학대학교", "area"=>"전남", "address"=>"전남 목포시 상동 525", "road_address"=>"전남 목포시 영산로 413-1", "Lat"=>"34.80729217521733", "Lng"=>"126.40995107088925"}
{"name"=>"배화여자대학교", "area"=>"서울", "address"=>"서울 종로구 필운동 12", "road_address"=>"서울 종로구 필운대로1길 34", "Lat"=>"37.57882433357308", "Lng"=>"126.96614606119172"}
{"name"=>"삼육보건대학교", "area"=>"서울", "address"=>"서울 동대문구 휘경2동 29-1", "road_address"=>"서울 동대문구 망우로 82", "Lat"=>"37.588891240673995", "Lng"=>"127.06565631661066"}
{"name"=>"서라벌대학교", "area"=>"경북", "address"=>"경북 경주시 충효동 165", "road_address"=>"경북 경주시 태종로 516", "Lat"=>"35.839483805242736", "Lng"=>"129.18495030005624"}
{"name"=>"서영대학교 광주캠퍼스", "area"=>"광주", "address"=>"광주 북구 운암동 789-1", "road_address"=>"광주 북구 서강로 1", "Lat"=>"35.17612517700866", "Lng"=>"126.86945089345186"}
{"name"=>"서울여자간호대학교", "area"=>"서울", "address"=>"서울 서대문구 홍제동 287-89", "road_address"=>"서울 서대문구 간호대로 38", "Lat"=>"37.597568961650595", "Lng"=>"126.94748062294285"}
{"name"=>"서울예술대학교", "area"=>"경기", "address"=>"경기 안산시 단원구 고잔동 640", "road_address"=>"경기 안산시 단원구 예술대학로 171", "Lat"=>"37.33302933641029", "Lng"=>"126.83744441766292"}
{"name"=>"서정대학교", "area"=>"경기", "address"=>"경기 양주시 은현면 용암리 681-1", "road_address"=>"경기 양주시 은현면 화합로 1049-56", "Lat"=>"37.856938853373606", "Lng"=>"127.03825332146276"}
{"name"=>"서해대학교", "area"=>"전북", "address"=>"전북 군산시 오룡동 832-1", "road_address"=>"전북 군산시 서해대길 6", "Lat"=>"35.9788068430244", "Lng"=>"126.70839999661051"}
{"name"=>"선린대학교", "area"=>"경북", "address"=>"경북 포항시 북구 흥해읍 초곡리 146-1", "road_address"=>"경북 포항시 북구 흥해읍 초곡길36번길 30", "Lat"=>"36.090982120703906", "Lng"=>"129.33314293551328"}
{"name"=>"성덕대학교", "area"=>"경북", "address"=>"경북 영천시 신녕면 화남리 1135-5", "road_address"=>"경북 영천시 신녕면 대학길 105", "Lat"=>"36.064013289388214", "Lng"=>"128.7615285886823"}
{"name"=>"수성대학교", "area"=>"대구", "address"=>"대구 수성구 만촌3동 산395", "road_address"=>"대구 수성구 달구벌대로528길 15", "Lat"=>"35.85218568985637", "Lng"=>"128.64818759385116"}
{"name"=>"수원과학대학교", "area"=>"경기", "address"=>"경기 화성시 정남면 보통리 141-44", "road_address"=>"경기 화성시 정남면 세자로 288", "Lat"=>"37.1920797522816", "Lng"=>"126.98269121219808"}
{"name"=>"신성대학교", "area"=>"충남", "address"=>"충남 당진시 정미면 덕마리 230-2", "road_address"=>"충남 당진시 정미면 대학로 1", "Lat"=>"36.85217933522527", "Lng"=>"126.5942989519365"}
{"name"=>"안동과학대학교", "area"=>"경북", "address"=>"경북 안동시 서후면 교리 496", "road_address"=>"경북 안동시 서후면 서선길 189", "Lat"=>"36.590168570595836", "Lng"=>"128.65469623508318"}
{"name"=>"안산대학교", "area"=>"경기", "address"=>"경기 안산시 상록구 일동 752", "road_address"=>"경기 안산시 상록구 안산대학로 155", "Lat"=>"37.30956981135816", "Lng"=>"126.87593391978623"}
{"name"=>"연성대학교", "area"=>"경기", "address"=>"경기 안양시 만안구 안양동 922-1", "road_address"=>"경기 안양시 만안구 양화로37번길 34", "Lat"=>"37.3963934092377", "Lng"=>"126.90809450956505"}
{"name"=>"연암공업대학", "area"=>"경남", "address"=>"경남 진주시 가좌동 780", "road_address"=>"경남 진주시 진주대로629번길 35", "Lat"=>"35.16475043673819", "Lng"=>"128.09887398464247"}
{"name"=>"오산대학교", "area"=>"경기", "address"=>"경기 오산시 청학동 17", "road_address"=>"경기 오산시 청학로 45", "Lat"=>"37.15575636638885", "Lng"=>"127.06100656371211"}
{"name"=>"용인송담대학교", "area"=>"경기", "address"=>"경기 용인시 처인구 마평동 571-2", "road_address"=>"경기 용인시 처인구 동부로 61", "Lat"=>"37.228844536416766", "Lng"=>"127.21829017192313"}
{"name"=>"우송정보대학", "area"=>"대전", "address"=>"대전 동구 자양동 226-2", "road_address"=>"대전 동구 동대전로131번길 53", "Lat"=>"36.33604728829969", "Lng"=>"127.44427325311544"}
{"name"=>"울산과학기술원", "area"=>"울산", "address"=>"울산 울주군 언양읍 반연리 100", "road_address"=>"울산 울주군 언양읍 유니스트길 50", "Lat"=>"35.57410738926406", "Lng"=>"129.18899351337475"}
{"name"=>"웅지세무대학", "area"=>"경기", "address"=>"경기 파주시 탄현면 금승리 536-2", "road_address"=>"경기 파주시 탄현면 웅지로144번길 73", "Lat"=>"37.81808280073271", "Lng"=>"126.73672860821324"}
{"name"=>"원광보건대학교", "area"=>"전북", "address"=>"전북 익산시 신용동 345-13", "road_address"=>"전북 익산시 익산대로 501", "Lat"=>"35.97215193405294", "Lng"=>"126.95502652112943"}
{"name"=>"인하공업전문대학", "area"=>"인천", "address"=>"인천 남구 용현동 253", "road_address"=>"인천 남구 인하로 100", "Lat"=>"37.44785181946122", "Lng"=>"126.65829572302982"}
{"name"=>"전주기전대학", "area"=>"전북", "address"=>"전북 전주시 완산구 중화산동1가 177", "road_address"=>"전북 전주시 완산구 전주천서로 267", "Lat"=>"35.817245570233844", "Lng"=>"127.13561829993112"}
{"name"=>"제주한라대학교", "area"=>"제주", "address"=>"제주특별자치도 제주시 노형동 1534", "road_address"=>"제주특별자치도 제주시 한라대학로 38", "Lat"=>"33.476956917702616", "Lng"=>"126.47504654863772"}
{"name"=>"조선간호대학교", "area"=>"광주", "address"=>"광주 동구 서석동 280", "road_address"=>"광주 동구 필문대로 309-2", "Lat"=>"35.13783796184184", "Lng"=>"126.92879560953968"}
{"name"=>"진주보건대학교", "area"=>"경남", "address"=>"경남 진주시 상봉동 1142", "road_address"=>"경남 진주시 의병로 51", "Lat"=>"35.19774071973701", "Lng"=>"128.06713316945462"}
{"name"=>"창원문성대학", "area"=>"경남", "address"=>"경남 창원시 의창구 두대동 196", "road_address"=>"경남 창원시 의창구 충혼로 91", "Lat"=>"35.234375645212694", "Lng"=>"128.66060933426354"}
{"name"=>"청강문화산업대학교", "area"=>"경기", "address"=>"경기 이천시 마장면 해월리 33", "road_address"=>"경기 이천시 마장면 청강가창로 389-94", "Lat"=>"37.20505570816493", "Lng"=>"127.35565177068345"}
{"name"=>"청암대학교", "area"=>"전남", "address"=>"전남 순천시 덕월동 224-9", "road_address"=>"전남 순천시 녹색로 1641", "Lat"=>"34.92851542831619", "Lng"=>"127.4899971607148"}
{"name"=>"춘해보건대학교", "area"=>"울산", "address"=>"울산 울주군 웅촌면 곡천리 713", "road_address"=>"울산 울주군 웅촌면 대학길 9", "Lat"=>"35.45810290526676", "Lng"=>"129.19662064646417"}
{"name"=>"충남도립대학교", "area"=>"충남", "address"=>"충남 청양군 청양읍 벽천리 90", "road_address"=>"충남 청양군 청양읍 학사길 55", "Lat"=>"36.437613413776916", "Lng"=>"126.80089439850342"}
{"name"=>"포항대학교", "area"=>"경북", "address"=>"경북 포항시 북구 흥해읍 죽천리 산59-1", "road_address"=>"경북 포항시 북구 흥해읍 신덕로 60", "Lat"=>"36.08618643131777", "Lng"=>"129.4107906131398"}
{"name"=>"한국골프대학교", "area"=>"강원", "address"=>"강원 횡성군 우천면 하대리 280-1", "road_address"=>"강원 횡성군 우천면 하대5길 101", "Lat"=>"37.46723887561721", "Lng"=>"128.07617633262836"}
{"name"=>"한국농수산대학", "area"=>"경기", "address"=>"전북 전주시 완산구 중동 460", "road_address"=>"전북 전주시 완산구 콩쥐팥쥐로 1515", "Lat"=>"35.82693290813222", "Lng"=>"127.06620165067278"}
{"name"=>"국립한국복지대학교", "area"=>"경기", "address"=>"경기 평택시 장안동 5-3", "road_address"=>"경기 평택시 삼남로 283", "Lat"=>"37.05163946876721", "Lng"=>"127.09468086023443"}
{"name"=>"한림성심대학교", "area"=>"강원", "address"=>"강원 춘천시 동면 장학리 산37-17", "road_address"=>"강원 춘천시 동면 장학길 48", "Lat"=>"37.89893566579539", "Lng"=>"127.756299671587"}
{"name"=>"혜전대학교", "area"=>"충남", "address"=>"충남 홍성군 홍성읍 남장리 392-1", "road_address"=>"충남 홍성군 홍성읍 대학길 25", "Lat"=>"36.5796068105029", "Lng"=>"126.66053872469071"}
{"name"=>"영진사이버대학", "area"=>"대구", "address"=>"대구 북구 복현2동 218", "road_address"=>"대구 북구 복현로 35", "Lat"=>"35.89635431075516", "Lng"=>"128.62235448367716"}
{"name"=>"한국복지사이버대학", "area"=>"경북", "address"=>"경북 경산시 남천면 협석리 140", "road_address"=>"경북 경산시 남천면 남천로 746-10", "Lat"=>"35.78481161819583", "Lng"=>"128.72934727117732"}
{"name"=>"ICT폴리텍대학", "area"=>"경기", "address"=>"경기 광주시 역동 181-3", "road_address"=>"경기 광주시 순암로 16-26", "Lat"=>"37.39641403599994", "Lng"=>"127.24804759198261"}
{"name"=>"한국폴리텍대학 서울정수캠퍼스", "area"=>"서울", "address"=>"서울 용산구 보광동 238-2", "road_address"=>"서울 용산구 보광로 73", "Lat"=>"37.52884177768273", "Lng"=>"126.99666030941208"}
{"name"=>"개신대학원대학교", "area"=>"서울", "address"=>"서울 강북구 미아동 203-8", "road_address"=>"서울 강북구 도봉로 235", "Lat"=>"37.62960643846792", "Lng"=>"127.0245603430033"}
{"name"=>"경안신학대학원대학교", "area"=>"경북", "address"=>"경북 안동시 북후면 물한리 652-10", "road_address"=>"경북 안동시 북후면 물한길 16-29", "Lat"=>"36.656494503091615", "Lng"=>"128.70482343915802"}
{"name"=>"계약신학대학원대학교", "area"=>"경기", "address"=>"경기 광주시 초월읍 대쌍령리 산42-2", "road_address"=>"경기 광주시 초월읍 진새골길 151-30", "Lat"=>"37.37998658330486", "Lng"=>"127.2757329226149"}
{"name"=>"과학기술연합대학원대학교", "area"=>"대전", "address"=>"대전 유성구 가정동 176-1", "road_address"=>"대전 유성구 가정로 217", "Lat"=>"36.38490195183851", "Lng"=>"127.36781363273069"}
{"name"=>"국제뇌교육종합대학원대학교", "area"=>"충남", "address"=>"충남 천안시 동남구 목천읍 지산리 167", "road_address"=>"충남 천안시 동남구 목천읍 교천지산길 284-31", "Lat"=>"36.792801473279795", "Lng"=>"127.19559304534268"}
{"name"=>"국제문화대학원대학교", "area"=>"충남", "address"=>"충남 청양군 운곡면 후덕리 370-2", "road_address"=>"충남 청양군 운곡면 청신로 576", "Lat"=>"36.49875956636744", "Lng"=>"126.83425410618223"}
{"name"=>"국제법률경영대학원대학교", "area"=>"경기", "address"=>"경기 고양시 덕양구 내유동 300", "road_address"=>"경기 고양시 덕양구 내유길 230", "Lat"=>"37.72675857935895", "Lng"=>"126.86858954657585"}
{"name"=>"국제신학대학원대학교", "area"=>"서울", "address"=>"서울 관악구 신림동 1577-5", "road_address"=>"서울 관악구 남부순환로 1548", "Lat"=>"37.48305266688559", "Lng"=>"126.92267774780727"}
{"name"=>"국제 영어대학원대학교", "area"=>"서울", "address"=>"서울 강동구 성내동 449-11", "road_address"=>"서울 강동구 양재대로81길 17", "Lat"=>"37.52274454737008", "Lng"=>"127.1330835000161"}
{"name"=>"능인불교대학원대학교", "area"=>"경기", "address"=>"경기 화성시 팔탄면 해창리 95-5", "road_address"=>"경기 화성시 팔탄면 3.1만세로 694-57", "Lat"=>"37.10564392756155", "Lng"=>"126.87922832501337"}
{"name"=>"대한신학대학원대학교", "area"=>"경기", "address"=>"경기 안양시 만안구 석수1동 381-1", "road_address"=>"경기 안양시 만안구 경수대로1406번길 30", "Lat"=>"37.432316729345224", "Lng"=>"126.90542477310947"}
{"name"=>"동방문화대학원대학교", "area"=>"서울", "address"=>"서울 성북구 성북동 292-1", "road_address"=>"서울 성북구 성북로28길 60", "Lat"=>"37.59665772536315", "Lng"=>"126.99149826028001"}
{"name"=>"베뢰아국제대학원대학교", "area"=>"서울", "address"=>"서울 영등포구 대림동 665-10", "road_address"=>"서울 영등포구 가마산로 359", "Lat"=>"37.50089572535214", "Lng"=>"126.89825885165324"}
{"name"=>"건신대학원대학교", "area"=>"대전", "address"=>"대전 중구 용두동 128-1", "road_address"=>"대전 중구 동서대로1327번길 40", "Lat"=>"36.33090295509717", "Lng"=>"127.40587737061576"}
{"name"=>"북한대학원대학교", "area"=>"서울", "address"=>"서울 종로구 삼청동 28-7", "road_address"=>"서울 종로구 북촌로15길 2", "Lat"=>"37.58608644374427", "Lng"=>"126.98353785138795"}
{"name"=>"서울과학종합대학원대학교", "area"=>"서울", "address"=>"서울 서대문구 대현동 67-7", "road_address"=>"서울 서대문구 이화여대2길 46", "Lat"=>"37.55741032014214", "Lng"=>"126.94855004323094"}
{"name"=>"서울벤처대학원대학교", "area"=>"서울", "address"=>"서울 강남구 삼성동 37-18", "road_address"=>"서울 강남구 봉은사로 405", "Lat"=>"37.51078818993403", "Lng"=>"127.04440084932298"}
{"name"=>"서울 불교대학원대학교", "area"=>"서울", "address"=>"서울 금천구 독산동 1038-2", "road_address"=>"서울 금천구 독산로70길 8", "Lat"=>"37.466433792556785", "Lng"=>"126.90232975953126"}
{"name"=>"서울성경 신학대학원대학교", "area"=>"서울", "address"=>"서울 동작구 신대방1동 632-57", "road_address"=>"서울 동작구 신대방14가길 45-1", "Lat"=>"37.49031217235124", "Lng"=>"126.91369211164272"}
{"name"=>"서울외국어대학원대학교", "area"=>"서울", "address"=>"서울 서초구 양재동 17-7", "road_address"=>"서울 서초구 남부순환로356길 85", "Lat"=>"37.48129836343333", "Lng"=>"127.03894740053236"}
{"name"=>"서울제일대학원대학교", "area"=>"서울", "address"=>"서울 강북구 수유동 410-39", "road_address"=>"서울 강북구 인수봉로 225", "Lat"=>"37.639371411901884", "Lng"=>"127.01249931569959"}
{"name"=>"성산효대학원대학교", "area"=>"인천", "address"=>"인천 남동구 간석동 614-6", "road_address"=>"인천 남동구 석정로 543", "Lat"=>"37.466403737033396", "Lng"=>"126.69594356277095"}
{"name"=>"성서침례대학원대학교", "area"=>"경기", "address"=>"경기 이천시 대월면 장평리 280-5", "road_address"=>"경기 이천시 대월면 대평로 548-123", "Lat"=>"37.20891027616362", "Lng"=>"127.52813686459216"}
{"name"=>"순복음대학원대학교", "area"=>"서울", "address"=>"서울 관악구 남현동 602-127", "road_address"=>"서울 관악구 과천대로 927", "Lat"=>"37.4734285654148", "Lng"=>"126.98185328241523"}
{"name"=>"실천신학대학원대학교", "area"=>"경기", "address"=>"경기 이천시 신둔면 인후리 10", "road_address"=>"경기 이천시 신둔면 마소로11번길 311-43", "Lat"=>"37.31431593287806", "Lng"=>"127.3821347773365"}
{"name"=>"에스라 성경대학원대학교", "area"=>"경기", "address"=>"경기 고양시 덕양구 고양동 292", "road_address"=>"경기 고양시 덕양구 대양로285번길 33-7", "Lat"=>"37.703164640873645", "Lng"=>"126.89442234029892"}
{"name"=>"예일 신학대학원대학교", "area"=>"서울", "address"=>"서울 서초구 서초동 1434-4", "road_address"=>"서울 서초구 남부순환로337가길 49", "Lat"=>"37.48420004009469", "Lng"=>"127.02374834090413"}
{"name"=>"용문 상담심리대학원대학교", "area"=>"서울", "address"=>"서울 종로구 원남동 150-2", "road_address"=>"서울 종로구 율곡로 154", "Lat"=>"37.576082886877636", "Lng"=>"126.995920106868"}
{"name"=>"원불교대학원대학교", "area"=>"전북", "address"=>"전북 익산시 신용동 320-1", "road_address"=>"전북 익산시 익산대로33길 23", "Lat"=>"35.975413200961555", "Lng"=>"126.95189799683332"}
{"name"=>"웨스트민스터신학대학원대학교", "area"=>"경기", "address"=>"경기 용인시 기흥구 중동 38-1", "road_address"=>"경기 용인시 기흥구 동백죽전대로 201-11", "Lat"=>"37.25903862265553", "Lng"=>"127.15813080730314"}
{"name"=>"주안대학원대학교", "area"=>"인천", "address"=>"인천 남구 주안동 171-2", "road_address"=>"인천 남구 석바위로74번길 11", "Lat"=>"37.46048021931375", "Lng"=>"126.68146810695596"}
{"name"=>"중앙신학대학원대학교", "area"=>"경기", "address"=>"경기 용인시 처인구 남사면 아곡리 285", "road_address"=>"경기 용인시 처인구 남사면 아곡로96번길 79", "Lat"=>"37.16174655569648", "Lng"=>"127.16370120081567"}
{"name"=>"청심신학대학원대학교", "area"=>"경기", "address"=>"경기 가평군 설악면 송산리 6", "road_address"=>"경기 가평군 설악면 미사리로 324-211", "Lat"=>"37.68862386332141", "Lng"=>"127.54061734346449"}
{"name"=>"한국상담대학원대학교", "area"=>"서울", "address"=>"서울 서초구 서초동 1437-1", "road_address"=>"서울 서초구 효령로 366", "Lat"=>"37.486924640632154", "Lng"=>"127.0239889115588"}
{"name"=>"한국전력국제 원자력대학원대학교", "area"=>"울산", "address"=>"울산 울주군 서생면 신암리 1456-1", "road_address"=>"울산 울주군 서생면 해맞이로 658-91", "Lat"=>"35.33097235606796", "Lng"=>"129.31078679193584"}
{"name"=>"합동신학대학원대학교", "area"=>"경기", "address"=>"경기 수원시 영통구 원천동 49-18", "road_address"=>"경기 수원시 영통구 광교중앙로 50", "Lat"=>"37.27993850988987", "Lng"=>"127.0545214911702"}
{"name"=>"횃불트리니티신학대학원대학교", "area"=>"서울", "address"=>"서울 서초구 양재동 55", "road_address"=>"서울 서초구 바우뫼로31길 70", "Lat"=>"37.47911598574818", "Lng"=>"127.03350591035516"}
{"name"=>"구세군 사관대학원대학교", "area"=>"경기", "address"=>"경기 과천시 중앙동 83-2", "road_address"=>"경기 과천시 관악산길 216", "Lat"=>"37.43189251623799", "Lng"=>"126.9868934988805"}
{"name"=>"국제암대학원대학교", "area"=>"경기", "address"=>"경기 고양시 일산동구 마두동 809", "road_address"=>"경기 고양시 일산동구 일산로 323", "Lat"=>"37.66333383053744", "Lng"=>"126.78332708002225"}
{"name"=>"서울사회복지대학원대학교", "area"=>"서울", "address"=>"서울 영등포구 영등포동4가 134-2", "road_address"=>"서울 영등포구 영신로34길 18", "Lat"=>"37.519554251946346", "Lng"=>"126.90317908944614"}
{"name"=>"인제대학교 대학원", "area"=>"서울", "address"=>"경남 김해시 어방동 607", "road_address"=>"경남 김해시 인제로 197", "Lat"=>"35.2507717205459", "Lng"=>"128.90170760428975"}
{"name"=>"크리스찬치유상담대학원대학교", "area"=>"서울", "address"=>"서울 서초구 방배4동 877-15", "road_address"=>"서울 서초구 서초대로 121", "Lat"=>"37.48852357493266", "Lng"=>"126.99545901570072"}
{"name"=>"서울미디어 대학원대학교", "area"=>"서울", "address"=>"서울 강서구 등촌3동 661", "road_address"=>"서울 강서구 화곡로61길 99", "Lat"=>"37.558205360055084", "Lng"=>"126.84698855352997"}
{"name"=>"한림국제대학원대학교", "area"=>"서울", "address"=>"서울 강남구 대치동 907-13", "road_address"=>"서울 강남구 역삼로 405", "Lat"=>"37.50096797317367", "Lng"=>"127.05146096381311"}
{"name"=>"한반도국제대학원대학교 서울캠퍼스", "area"=>"서울", "address"=>"서울 용산구 효창동 5-357", "road_address"=>"서울 용산구 임정로 17", "Lat"=>"37.54309254442509", "Lng"=>"126.9601786056499"}
{"name"=>"한국학대학원", "area"=>"경기", "address"=>"경기 성남시 분당구 운중동 490-8", "road_address"=>"경기 성남시 분당구 하오개로 323", "Lat"=>"37.39270180613553", "Lng"=>"127.05215928903662"}
{"name"=>"가야대학교 김해캠퍼스", "area"=>"경남/경북", "address"=>"경남 김해시 삼계동 60", "road_address"=>"경남 김해시 삼계로 208", "Lat"=>"35.2700654775218", "Lng"=>"128.87297735394003"}
{"name"=>"가야대학교 고령캠퍼스", "area"=>"경남/경북", "address"=>"경북 고령군 대가야읍 지산리 산121-1", "road_address"=>"경북 고령군 대가야읍 대가야로 1103", "Lat"=>"35.71681031912354", "Lng"=>"128.25233992243335"}
{"name"=>"가톨릭대학교 성심교정", "area"=>"경기/서울", "address"=>"경기 부천시 원미구 역곡동 산43-1", "road_address"=>"경기 부천시 원미구 지봉로 43", "Lat"=>"37.48636389057724", "Lng"=>"126.80150510225504"}
{"name"=>"가톨릭대학교 성신교정", "area"=>"경기/서울", "address"=>"서울 종로구 혜화동 90-1", "road_address"=>"서울 종로구 창경궁로 296-12", "Lat"=>"37.58602985185046", "Lng"=>"127.00424347224845"}
{"name"=>"가톨릭대학교 성의교정", "area"=>"경기/서울", "address"=>"서울 서초구 반포동 505", "road_address"=>"서울 서초구 반포대로 222", "Lat"=>"37.50106916319877", "Lng"=>"127.00531076434144"}
{"name"=>"강릉원주대학교 강릉캠퍼스", "area"=>"강원", "address"=>"강원 강릉시 지변동 123", "road_address"=>"강원 강릉시 죽헌길 7", "Lat"=>"37.77054607457606", "Lng"=>"128.86959014415083"}
{"name"=>"강릉원주대학교 원주캠퍼스", "area"=>"강원", "address"=>"강원 원주시 흥업면 흥업리 7", "road_address"=>"강원 원주시 흥업면 남원로 150", "Lat"=>"37.304827463827465", "Lng"=>"127.92353250711011"}
{"name"=>"강원대학교 춘천캠퍼스", "area"=>"강원", "address"=>"강원 춘천시 효자동 192-1", "road_address"=>"강원 춘천시 강원대학길 1", "Lat"=>"37.869033672711225", "Lng"=>"127.74360163408627"}
{"name"=>"강원대학교 삼척캠퍼스", "area"=>"강원", "address"=>"강원 삼척시 교동 526", "road_address"=>"강원 삼척시 중앙로 346", "Lat"=>"37.453321106649625", "Lng"=>"129.16155377933813"}
{"name"=>"건양대학교 논산창의융합캠퍼스", "area"=>"충남/대전", "address"=>"충남 논산시 내동 26", "road_address"=>"충남 논산시 대학로 121", "Lat"=>"36.18294523983628", "Lng"=>"127.11009505137547"}
{"name"=>"건양대학교 대전메디컬캠퍼스", "area"=>"충남/대전", "address"=>"대전 서구 관저동 1643", "road_address"=>"대전 서구 관저동로 158", "Lat"=>"36.307928361268196", "Lng"=>"127.34439929400415"}
{"name"=>"경기대학교 수원캠퍼스", "area"=>"경기/서울", "address"=>"경기 수원시 영통구 이의동 산94-6", "road_address"=>"경기 수원시 영통구 광교산로 154-42", "Lat"=>"37.301250117428765", "Lng"=>"127.03472168869413"}
{"name"=>"경기대학교 서울캠퍼스", "area"=>"경기/서울", "address"=>"서울 서대문구 충정로2가 67-9", "road_address"=>"서울 서대문구 경기대로9길 24", "Lat"=>"37.565037937338744", "Lng"=>"126.96228127617688"}
{"name"=>"경동대학교 고성Global캠퍼스", "area"=>"강원/경기", "address"=>"강원 고성군 토성면 봉포리 306-3", "road_address"=>"강원 고성군 토성면 봉포4길 46", "Lat"=>"38.25091883251857", "Lng"=>"128.55675985390081"}
{"name"=>"경동대학교 속초Global캠퍼스", "area"=>"강원/경기", "address"=>"강원 속초시 노학동 635-1", "road_address"=>"강원 속초시 도리원길 5", "Lat"=>"38.19283402886496", "Lng"=>"128.5524176107798"}
{"name"=>"경동대학교 원주문막Medical캠퍼스", "area"=>"강원/경기", "address"=>"강원 원주시 문막읍 후용리 882", "road_address"=>"강원 원주시 문막읍 견훤로 815", "Lat"=>"37.2654486684936", "Lng"=>"127.79348332750278"}
{"name"=>"단국대학교 천안캠퍼스", "area"=>"경기/충남", "address"=>"충남 천안시 동남구 안서동 522", "road_address"=>"충남 천안시 동남구 단대로 119", "Lat"=>"36.83735792070357", "Lng"=>"127.1683749160505"}
{"name"=>"단국대학교 죽전캠퍼스", "area"=>"경기/충남", "address"=>"경기 용인시 수지구 죽전동 126", "road_address"=>"경기 용인시 수지구 죽전로 152", "Lat"=>"37.320626876808305", "Lng"=>"127.1278479362056"}
{"name"=>"명지대학교 인문캠퍼스", "area"=>"경기/서울", "address"=>"서울 서대문구 남가좌동 50-3", "road_address"=>"서울 서대문구 거북골로 34", "Lat"=>"37.58061705605888", "Lng"=>"126.9232788727141"}
{"name"=>"명지대학교 자연캠퍼스", "area"=>"경기/서울", "address"=>"경기 용인시 처인구 남동 산38-2", "road_address"=>"경기 용인시 처인구 명지로 116", "Lat"=>"37.22169836314254", "Lng"=>"127.1860767624197"}
{"name"=>"서남대학교 남원캠퍼스", "area"=>"전북/충남", "address"=>"전북 남원시 광치동 산223", "road_address"=>"전북 남원시 춘향로 439", "Lat"=>"35.44745839551595", "Lng"=>"127.36848221337974"}
{"name"=>"서남대학교 아산캠퍼스", "area"=>"전북/충남", "address"=>"충남 아산시 송악면 평촌리 348-9", "road_address"=>"충남 아산시 송악면 평촌길 7-111", "Lat"=>"36.73189516897473", "Lng"=>"126.99464416950431"}
{"name"=>"세한대학교 당진캠퍼스", "area"=>"전남/충남", "address"=>"충남 당진시 신평면 남산리 산86-8", "road_address"=>"충남 당진시 신평면 남산길 71-200", "Lat"=>"36.87523187273904", "Lng"=>"126.78012709352532"}
{"name"=>"세한대학교 영암캠퍼스", "area"=>"전남/충남", "address"=>"전남 영암군 삼호읍 산호리 280-1", "road_address"=>"전남 영암군 삼호읍 녹색로 1113", "Lat"=>"34.748220461544705", "Lng"=>"126.48434894929011"}
{"name"=>"신한대학교 제1캠퍼스", "area"=>"경기", "address"=>"경기 의정부시 호원동 산101-1", "road_address"=>"경기 의정부시 호암로 95", "Lat"=>"37.710129856436936", "Lng"=>"127.04540409941816"}
{"name"=>"신한대학교 제2캠퍼스", "area"=>"지역", "address"=>"경기 동두천시 상패동 233-1", "road_address"=>"경기 동두천시 벌마들로40번길 30", "Lat"=>"37.90404451677208", "Lng"=>"127.03665398373259"}
{"name"=>"안양대학교 안양캠퍼스", "area"=>"경기/인천", "address"=>"경기 안양시 만안구 안양5동 708-113", "road_address"=>"경기 안양시 만안구 삼덕로37번길 22", "Lat"=>"37.39112897757258", "Lng"=>"126.9195516166594"}
{"name"=>"안양대학교 강화캠퍼스", "area"=>"경기/인천", "address"=>"인천 강화군 불은면 삼성리 380-2", "road_address"=>"인천 강화군 불은면 중앙로 602-14", "Lat"=>"37.70967986519176", "Lng"=>"126.44665978528654"}
{"name"=>"영산대학교 양산캠퍼스", "area"=>"경남/부산", "address"=>"경남 양산시 주남동 산150", "road_address"=>"경남 양산시 주남로 288", "Lat"=>"35.428594505214704", "Lng"=>"129.14709976860306"}
{"name"=>"영산대학교 해운대캠퍼스", "area"=>"경남/부산", "address"=>"부산 해운대구 반송동 248", "road_address"=>"부산 해운대구 반송순환로 142", "Lat"=>"35.22398940129573", "Lng"=>"129.15518856876557"}
{"name"=>"예원예술대학교 임실캠퍼스", "area"=>"전북/경기", "address"=>"전북 임실군 신평면 창인리 271", "road_address"=>"전북 임실군 신평면 창인로 117", "Lat"=>"35.64713971770161", "Lng"=>"127.27017434747732"}
{"name"=>"예원예술대학교", "area"=>"전북/경기", "address"=>"전북 전주시 완산구 서노송동 578-4", "road_address"=>"전북 전주시 완산구 기린대로 192", "Lat"=>"35.82472136187558", "Lng"=>"127.14870718289065"}
{"name"=>"을지대학교 대전캠퍼스", "area"=>"대전/경기", "address"=>"대전 중구 목동 24-14", "road_address"=>"대전 중구 계룡로771번길 77", "Lat"=>"36.33252323958571", "Lng"=>"127.40535561592736"}
{"name"=>"을지대학교 성남캠퍼스", "area"=>"대전/경기", "address"=>"경기 성남시 수정구 양지동 212", "road_address"=>"경기 성남시 수정구 산성대로 553", "Lat"=>"37.4606858985317", "Lng"=>"127.16521419721178"}
{"name"=>"인제대학교 김해캠퍼스", "area"=>"경남/부산", "address"=>"경남 김해시 어방동 607", "road_address"=>"경남 김해시 인제로 197", "Lat"=>"35.25072861794006", "Lng"=>"128.90169780862396"}
{"name"=>"인제대학교 부산캠퍼스", "area"=>"경남/부산", "address"=>"부산 부산진구 개금동 633-165", "road_address"=>"부산 부산진구 복지로 75", "Lat"=>"35.145587450525156", "Lng"=>"129.02090115648488"}
{"name"=>"인천가톨릭대학교 강화캠퍼스", "area"=>"인천", "address"=>"인천 강화군 양도면 도장리 495", "road_address"=>"인천 강화군 양도면 고려왕릉로 53-1", "Lat"=>"37.65735921215405", "Lng"=>"126.4474970957194"}
{"name"=>"인천가톨릭대학교 조형예술대학 송도국제캠퍼스", "area"=>"인천", "address"=>"인천 연수구 송도동 9-3", "road_address"=>"인천 연수구 해송로 10", "Lat"=>"37.38317413535667", "Lng"=>"126.64509402060744"}
{"name"=>"전남대학교 광주캠퍼스", "area"=>"광주/전남", "address"=>"광주 북구 용봉동 300", "road_address"=>"광주 북구 용봉로 77", "Lat"=>"35.17768932992244", "Lng"=>"126.90805178242385"}
{"name"=>"전남대학교 학동캠퍼스", "area"=>"광주/전남", "address"=>"광주 동구 학동 5", "road_address"=>"광주 동구 백서로 160", "Lat"=>"35.14253600872036", "Lng"=>"126.92313364283515"}
{"name"=>"중앙대학교 서울캠퍼스", "area"=>"서울/경기", "address"=>"서울 동작구 흑석동 221", "road_address"=>"서울 동작구 흑석로 84", "Lat"=>"37.50539751933014", "Lng"=>"126.95818097223007"}
{"name"=>"중앙대학교 안성캠퍼스", "area"=>"서울/경기", "address"=>"경기 안성시 대덕면 내리 72-1", "road_address"=>"경기 안성시 대덕면 서동대로 4726", "Lat"=>"37.004969349726544", "Lng"=>"127.2301239531938"}
{"name"=>"경인교육대학교 인천캠퍼스", "area"=>"인천/경기", "address"=>"인천 계양구 계산동 857-87", "road_address"=>"인천 계양구 계산로 62", "Lat"=>"37.538302359210334", "Lng"=>"126.71714527241086"}
{"name"=>"경인교육대학교 경기캠퍼스", "area"=>"인천/경기", "address"=>"경기 안양시 만안구 석수동 6-8", "road_address"=>"경기 안양시 만안구 삼막로 155", "Lat"=>"37.434163993841935", "Lng"=>"126.91771129105027"}
