{"name":"정평역","line":"2호선","area":"대구","address":"경상북도 경산시 정평동 144-3 ","Lat":35.83409517898839,"Lng":128.72866195164596},
{"name":"임당역","line":"2호선","area":"대구","address":"경상북도 경산시 중방동 50-4 ","Lat":35.834137429299915,"Lng":128.74089309972362},
{"name":"영남대역","line":"2호선","area":"대구","address":"경상북도 경산시 대동 201-1 ","Lat":35.83637863302175,"Lng":128.7529679689884},
{"name":"사상역","line":"부산김해","area":"부산","address":"부산광역시 사상구 괘법동 572-1 ","Lat":35.162382224889,"Lng":128.9859507081865},
{"name":"괘법르네시떼역","line":"부산김해","area":"부산","address":"부산광역시 사상구 괘법동 572-17 ","Lat":35.16327806589769,"Lng":128.97775099200027},
{"name":"서부산유통지구역","line":"부산김해","area":"부산","address":"부산광역시 강서구 대저2동 3149 ","Lat":35.16642603606975,"Lng":128.9549234213915},
{"name":"공항역","line":"부산김해","area":"부산","address":"부산광역시 강서구 대저2동 2353-1 ","Lat":35.17192052687052,"Lng":128.94856571131248},
{"name":"덕두역","line":"부산김해","area":"부산","address":"부산광역시 강서구 대저2동 1858-3 ","Lat":35.18201743334676,"Lng":128.9541398594274},
{"name":"등구역","line":"부산김해","area":"부산","address":"부산광역시 강서구 대저1동 3133-18 ","Lat":35.19620282907908,"Lng":128.96356303579688},
{"name":"대저역","line":"부산김해","area":"부산","address":"부산광역시 강서구 대저1동 1536-2 ","Lat":35.21307244295599,"Lng":128.96073121319586},
{"name":"평강역","line":"부산김해","area":"부산","address":"부산광역시 강서구 대저1동 1639-1 ","Lat":35.21407061912676,"Lng":128.95076994979158},
{"name":"대사역","line":"부산김해","area":"부산","address":"부산광역시 강서구 강동동 110-2 ","Lat":35.21769173069603,"Lng":128.9384002899011},
{"name":"불암역","line":"부산김해","area":"부산","address":"경상남도 김해시 불암동 193-24 ","Lat":35.22219892797421,"Lng":128.92786305333553},
{"name":"지내역","line":"부산김해","area":"부산","address":"경상남도 김해시 지내동 165-1 ","Lat":35.2275305590513,"Lng":128.92376038555165},
{"name":"김해대학역","line":"부산김해","area":"부산","address":"경상남도 김해시 삼정동 150-42 ","Lat":35.228129519308226,"Lng":128.9017413258897},
{"name":"인제대역","line":"부산김해","area":"부산","address":"경상남도 김해시 삼정동 150-42 ","Lat":35.228129519308226,"Lng":128.9017413258897},
{"name":"김해시청역","line":"부산김해","area":"부산","address":"경상남도 김해시 부원동 559-1 ","Lat":35.22713181654777,"Lng":128.89041536094345},
{"name":"부원역","line":"부산김해","area":"부산","address":"경상남도 김해시 부원동 641 ","Lat":35.22650363627627,"Lng":128.88389422052478},
{"name":"봉황역","line":"부산김해","area":"부산","address":"경상남도 김해시 전하동 1232 ","Lat":35.22730338646793,"Lng":128.8743236489584},
{"name":"수로왕릉역","line":"부산김해","area":"부산","address":"경상남도 김해시 외동 1140-1 ","Lat":35.23278155487956,"Lng":128.8721523351649},
{"name":"박물관역","line":"부산김해","area":"부산","address":"경상남도 김해시 내동 1037-1 ","Lat":35.24007591927378,"Lng":128.87186797425272},
{"name":"연지공원역","line":"부산김해","area":"부산","address":"경상남도 김해시 구산동 1072-8 ","Lat":35.249613255108855,"Lng":128.8692890674781},
{"name":"장신대역","line":"부산김해","area":"부산","address":"경상남도 김해시 삼계동 1520-2 ","Lat":35.259543485650106,"Lng":128.86721929846857},
{"name":"가야대역","line":"부산김해","area":"부산","address":"경상남도 김해시 삼계동 1519-7 ","Lat":35.2667795743821,"Lng":128.86499946370117},
