{"name":"가능역","line":"1호선","area":"수도권","address":"경기도 의정부시 가능동 197-1 ","Lat":37.74843054464585,"Lng":127.04430348098339},
{"name":"가산디지털단지역","line":"1호선","area":"수도권","address":"서울특별시 금천구 가산동 468-4 ","Lat":37.48149624144032,"Lng":126.88267583308121},
{"name":"간석역","line":"1호선","area":"수도권","address":"인천광역시 남동구 간석동 757 ","Lat":37.464762352457086,"Lng":126.69344647473335},
{"name":"개봉역","line":"1호선","area":"수도권","address":"서울특별시 구로구 개봉동 415 ","Lat":37.494772540855905,"Lng":126.85854922339333},
{"name":"관악역","line":"1호선","area":"수도권","address":"경기도 안양시 만안구 석수동 110-21 ","Lat":37.419645879501644,"Lng":126.90851629455713},
{"name":"광명역","line":"1호선","area":"수도권","address":"경기도 광명시 일직동 276-8 ","Lat":37.41606162205829,"Lng":126.88456250917739},
{"name":"구로역","line":"1호선","area":"수도권","address":"서울특별시 구로구 구로동 585-3 ","Lat":37.502973612590424,"Lng":126.882299679085},
{"name":"구일역","line":"1호선","area":"수도권","address":"서울특별시 구로구 구로동 636-46 ","Lat":37.49634777712043,"Lng":126.86964189741826},
{"name":"군포역","line":"1호선","area":"수도권","address":"경기도 군포시 당동 134-1 ","Lat":37.353797986364434,"Lng":126.94855791269993},
{"name":"금정역","line":"1호선","area":"수도권","address":"경기도 군포시 금정동 613 ","Lat":37.372278480703606,"Lng":126.94344553348635},
{"name":"금천구청역","line":"1호선","area":"수도권","address":"서울특별시 금천구 시흥동 113-77 ","Lat":37.45571592089579,"Lng":126.8940453165778},
{"name":"남영역","line":"1호선","area":"수도권","address":"서울특별시 용산구 갈월동 96-1 ","Lat":37.54066931041624,"Lng":126.97121054608442},
{"name":"노량진역","line":"1호선","area":"수도권","address":"서울특별시 동작구 노량진동 67-2 ","Lat":37.514143500562575,"Lng":126.94171154676278},
{"name":"녹양역","line":"1호선","area":"수도권","address":"경기도 의정부시 녹양동 96-1 ","Lat":37.75948800636856,"Lng":127.04232290310355},
{"name":"녹천역","line":"1호선","area":"수도권","address":"서울특별시 도봉구 창동 57-11 ","Lat":37.64466284993789,"Lng":127.05145704774483},
{"name":"당정역","line":"1호선","area":"수도권","address":"경기도 군포시 당정동 938 ","Lat":37.34344344462411,"Lng":126.94841996551766},
{"name":"대방역","line":"1호선","area":"수도권","address":"서울특별시 영등포구 신길동 1368-3 ","Lat":37.5134653246021,"Lng":126.92645055142427},
{"name":"덕계역","line":"1호선","area":"수도권","address":"경기도 양주시 덕계동 267-1 ","Lat":37.81882769933281,"Lng":127.05673223281323},
{"name":"덕정역","line":"1호선","area":"수도권","address":"경기도 양주시 덕정동 350-14 ","Lat":37.8432835879,"Lng":127.0615681902285},
{"name":"도봉역","line":"1호선","area":"수도권","address":"서울특별시 도봉구 도봉동 639 ","Lat":37.67951243780963,"Lng":127.0455724778256},
{"name":"도봉산역","line":"1호선","area":"수도권","address":"서울특별시 도봉구 도봉동 18-1 ","Lat":37.689653186399525,"Lng":127.04608899879},
{"name":"도원역","line":"1호선","area":"수도권","address":"인천광역시 동구 창영동 179-1 ","Lat":37.468679846070245,"Lng":126.64285862925678},
{"name":"도화역","line":"1호선","area":"수도권","address":"인천광역시 남구 도화동 668 ","Lat":37.46618148978601,"Lng":126.66880142468676},
{"name":"독산역","line":"1호선","area":"수도권","address":"서울특별시 금천구 가산동 717 ","Lat":37.466259565251434,"Lng":126.88937976137849},
{"name":"동대문역","line":"1호선","area":"수도권","address":"서울특별시 종로구 창신동 492-1 ","Lat":37.571825359427656,"Lng":127.01109463545995},
{"name":"동두천중앙역","line":"1호선","area":"수도권","address":"경기도 동두천시 생연동 726-3 ","Lat":37.90174495488032,"Lng":127.05647236771239},
{"name":"동묘앞역","line":"1호선","area":"수도권","address":"서울특별시 종로구 숭인동 117 ","Lat":37.573266114225,"Lng":127.01638499095593},
{"name":"동암역","line":"1호선","area":"수도권","address":"인천광역시 부평구 십정동 541 ","Lat":37.470939644030395,"Lng":126.70292558446741},
{"name":"동인천역","line":"1호선","area":"수도권","address":"인천광역시 중구 인현동 1-613 ","Lat":37.475491036601035,"Lng":126.63263979858407},
{"name":"두정역","line":"1호선","area":"수도권","address":"충청남도 천안시 서북구 두정동 84-1 ","Lat":36.83385438292426,"Lng":127.14892532177066},
{"name":"망월사역","line":"1호선","area":"수도권","address":"경기도 의정부시 호원동 50-5 ","Lat":37.71056766226641,"Lng":127.04740915922348},
{"name":"명학역","line":"1호선","area":"수도권","address":"경기도 안양시 만안구 안양동 1163-1 ","Lat":37.384507944816015,"Lng":126.93561812045905},
{"name":"방학역","line":"1호선","area":"수도권","address":"서울특별시 도봉구 방학동 728 ","Lat":37.667536809106636,"Lng":127.0443427710243},
{"name":"배방역","line":"1호선","area":"수도권","address":"충청남도 아산시 배방읍 구령리 148-2 ","Lat":36.77759879903793,"Lng":127.05276749491901},
{"name":"백운역","line":"1호선","area":"수도권","address":"인천광역시 부평구 십정동 541-1 ","Lat":37.483375881528524,"Lng":126.70722222294191},
{"name":"병점역","line":"1호선","area":"수도권","address":"경기도 화성시 진안동 824-1 ","Lat":37.20688555802861,"Lng":127.03329806694603},
{"name":"보산역","line":"1호선","area":"수도권","address":"경기도 동두천시 보산동 422 ","Lat":37.91433768448594,"Lng":127.05719884899491},
{"name":"봉명역","line":"1호선","area":"수도권","address":"충청남도 천안시 동남구 봉명동 20-2 ","Lat":36.80163724501416,"Lng":127.13633828669319},
{"name":"부개역","line":"1호선","area":"수도권","address":"인천광역시 부평구 부개동 468 ","Lat":37.48855647592166,"Lng":126.74059206040462},
{"name":"부천역","line":"1호선","area":"수도권","address":"경기도 부천시 원미구 심곡동 316-2 ","Lat":37.484151135245504,"Lng":126.7828294537582},
{"name":"부평역","line":"1호선","area":"수도권","address":"인천광역시 부평구 부평동 738-21 ","Lat":37.48952962310865,"Lng":126.72462057209202},
{"name":"서동탄역","line":"1호선","area":"수도권","address":"경기도 오산시 외삼미동 242 ","Lat":37.19573606837823,"Lng":127.05192432300564},
{"name":"서울역역","line":"1호선","area":"수도권","address":"서울특별시 중구 남대문로5가 73-6 ","Lat":37.55597853038314,"Lng":126.97230195748469},
{"name":"서정리역","line":"1호선","area":"수도권","address":"경기도 평택시 서정동 427-53 ","Lat":37.05652168650179,"Lng":127.05286960548773},
{"name":"석계역","line":"1호선","area":"수도권","address":"서울특별시 노원구 월계동 36-4 ","Lat":37.615275851632006,"Lng":127.06563760413889},
{"name":"석수역","line":"1호선","area":"수도권","address":"경기도 안양시 만안구 석수동 737 ","Lat":37.43523054072958,"Lng":126.90227884717295},
{"name":"성균관대역","line":"1호선","area":"수도권","address":"경기도 수원시 장안구 율전동 495-2 ","Lat":37.30040717679405,"Lng":126.97090100922634},
{"name":"성북역","line":"1호선","area":"수도권","address":"서울특별시 노원구 월계동 85 ","Lat":37.62389473218254,"Lng":127.06171223449957},
{"name":"성환역","line":"1호선","area":"수도권","address":"충청남도 천안시 서북구 성환읍 성환리 449-128 ","Lat":36.91593533583094,"Lng":127.12702897609256},
{"name":"세류역","line":"1호선","area":"수도권","address":"경기도 수원시 권선구 장지동 25-4 ","Lat":37.24424616178828,"Lng":127.0137395482727},
{"name":"세마역","line":"1호선","area":"수도권","address":"경기도 오산시 세교동 244-5 ","Lat":37.18734975574884,"Lng":127.04331161624417},
{"name":"소사역","line":"1호선","area":"수도권","address":"경기도 부천시 소사구 소사본동 395 ","Lat":37.48282315650561,"Lng":126.79569544598189},
{"name":"소요산역","line":"1호선","area":"수도권","address":"경기도 동두천시 상봉암동 126-3 ","Lat":37.94867842170604,"Lng":127.06107308899857},
{"name":"송내역","line":"1호선","area":"수도권","address":"경기도 부천시 소사구 송내동 632-4 ","Lat":37.487697768243336,"Lng":126.75308987726017},
{"name":"송탄역","line":"1호선","area":"수도권","address":"경기도 평택시 신장동 257-5 ","Lat":37.07543959661918,"Lng":127.05442285417837},
{"name":"수원역","line":"1호선","area":"수도권","address":"경기도 수원시 팔달구 매산로1가 18 ","Lat":37.266468815597605,"Lng":126.99996586084708},
{"name":"시청역","line":"1호선","area":"수도권","address":"서울특별시 중구 정동 5-5 ","Lat":37.565508665617756,"Lng":126.97716308699452},
{"name":"신길역","line":"1호선","area":"수도권","address":"서울특별시 영등포구 신길동 42-7 ","Lat":37.51708968618389,"Lng":126.91779021780619},
{"name":"신도림역","line":"1호선","area":"수도권","address":"서울특별시 구로구 신도림동 460-26 ","Lat":37.50906238432297,"Lng":126.89163091396692},
{"name":"신설동역","line":"1호선","area":"수도권","address":"서울특별시 동대문구 신설동 76-5 ","Lat":37.576081814717675,"Lng":127.02453314178209},
{"name":"신이문역","line":"1호선","area":"수도권","address":"서울특별시 동대문구 이문동 7 ","Lat":37.60190021483902,"Lng":127.06739017557416},
{"name":"신창역","line":"1호선","area":"수도권","address":"충청남도 아산시 신창면 행목리 346-49 ","Lat":36.76973956225629,"Lng":126.95150301110687},
{"name":"쌍용역","line":"1호선","area":"수도권","address":"충청남도 천안시 서북구 쌍용동 426-3 ","Lat":36.793804843979956,"Lng":127.12137780001197},
{"name":"아산역","line":"1호선","area":"수도권","address":"충청남도 아산시 배방읍 장재리 268 ","Lat":36.7922596122072,"Lng":127.10507012257804},
{"name":"안양역","line":"1호선","area":"수도권","address":"경기도 안양시 만안구 안양동 88-1 ","Lat":37.401997776950616,"Lng":126.9226871102424},
{"name":"양주역","line":"1호선","area":"수도권","address":"경기도 양주시 남방동 94-1 ","Lat":37.774347631882904,"Lng":127.04477637471186},
{"name":"역곡역","line":"1호선","area":"수도권","address":"경기도 부천시 원미구 역곡동 382 ","Lat":37.4852002509596,"Lng":126.81156645931296},
{"name":"영등포역","line":"1호선","area":"수도권","address":"서울특별시 영등포구 영등포동 618-496 ","Lat":37.51582332516711,"Lng":126.90745813018228},
{"name":"오류동역","line":"1호선","area":"수도권","address":"서울특별시 구로구 오류동 66 ","Lat":37.49447478492775,"Lng":126.84458765711402},
{"name":"오산역","line":"1호선","area":"수도권","address":"경기도 오산시 오산동 603-116 ","Lat":37.14553566059545,"Lng":127.06673368703458},
{"name":"오산대역","line":"1호선","area":"수도권","address":"경기도 오산시 수청동 435-1 ","Lat":37.16946757577921,"Lng":127.06310689310786},
{"name":"온수역","line":"1호선","area":"수도권","address":"서울특별시 구로구 온수동 51-7 ","Lat":37.492338071437516,"Lng":126.82344020835012},
{"name":"온양온천역","line":"1호선","area":"수도권","address":"충청남도 아산시 온천동 56-9 ","Lat":36.78060003015613,"Lng":127.00311271983554},
{"name":"외대앞역","line":"1호선","area":"수도권","address":"서울특별시 동대문구 이문동 360-5 ","Lat":37.59622088305858,"Lng":127.06362206782975},
{"name":"용산역","line":"1호선","area":"수도권","address":"서울특별시 용산구 한강로3가 40-999 ","Lat":37.52971683500981,"Lng":126.9644705647093},
{"name":"월계역","line":"1호선","area":"수도권","address":"서울특별시 노원구 월계동 263-1 ","Lat":37.6331799965278,"Lng":127.05888785314364},
{"name":"의왕역","line":"1호선","area":"수도권","address":"경기도 의왕시 삼동 191 ","Lat":37.320715847338036,"Lng":126.94813832966267},
{"name":"의정부역","line":"1호선","area":"수도권","address":"경기도 의정부시 의정부동 168-54 ","Lat":37.738488429682924,"Lng":127.04605357555025},
{"name":"인천역","line":"1호선","area":"수도권","address":"인천광역시 중구 북성동1가 3-1 ","Lat":37.476444177914246,"Lng":126.61697549859488},
{"name":"제기동역","line":"1호선","area":"수도권","address":"서울특별시 동대문구 제기동 65 ","Lat":37.57823065120025,"Lng":127.03494348483082},
{"name":"제물포역","line":"1호선","area":"수도권","address":"인천광역시 남구 도화동 668 ","Lat":37.46688832929311,"Lng":126.65720209150311},
{"name":"종각역","line":"1호선","area":"수도권","address":"서울특별시 종로구 종로1가 54 ","Lat":37.57025449040117,"Lng":126.98312059707939},
{"name":"종로3가역","line":"1호선","area":"수도권","address":"서울특별시 종로구 종로3가 10-5 ","Lat":37.57049459211981,"Lng":126.99221877593706},
{"name":"종로5가역","line":"1호선","area":"수도권","address":"서울특별시 종로구 종로5가 82-1 ","Lat":37.57105486730858,"Lng":127.00196932749878},
{"name":"주안역","line":"1호선","area":"수도권","address":"인천광역시 남구 주안동 125 ","Lat":37.46510849905501,"Lng":126.67998873639945},
{"name":"중동역","line":"1호선","area":"수도권","address":"경기도 부천시 소사구 송내동 632 ","Lat":37.486736430005415,"Lng":126.76451491499097},
{"name":"지제역","line":"1호선","area":"수도권","address":"경기도 평택시 지제동 141-1 ","Lat":37.018884065529264,"Lng":127.07029425764631},
{"name":"지행역","line":"1호선","area":"수도권","address":"경기도 동두천시 지행동 424-1 ","Lat":37.89243222596058,"Lng":127.05579521035992},
{"name":"직산역","line":"1호선","area":"수도권","address":"충청남도 천안시 서북구 직산읍 모시리 58-11 ","Lat":36.87101763081557,"Lng":127.14381430574011},
{"name":"진위역","line":"1호선","area":"수도권","address":"경기도 평택시 진위면 하북리 139-3 ","Lat":37.10983518503788,"Lng":127.06236698819276},
{"name":"창동역","line":"1호선","area":"수도권","address":"서울특별시 도봉구 창동 135-1 ","Lat":37.65379480048336,"Lng":127.04753321250254},
{"name":"천안역","line":"1호선","area":"수도권","address":"충청남도 천안시 동남구 대흥동 57-1 ","Lat":36.809145735835884,"Lng":127.14658715000948},
{"name":"청량리역","line":"1호선","area":"수도권","address":"서울특별시 동대문구 전농동 620-67 ","Lat":37.5800857000244,"Lng":127.0447920940985},
{"name":"평택역","line":"1호선","area":"수도권","address":"경기도 평택시 평택동 185-568 ","Lat":36.99089385236744,"Lng":127.08526091815867},
{"name":"화성역","line":"1호선","area":"수도권","address":"경기도 화성시 진안동 824-1 ","Lat":37.20688555802861,"Lng":127.03329806694603},
{"name":"회기역","line":"1호선","area":"수도권","address":"서울특별시 동대문구 휘경동 317-101 ","Lat":37.58986877360395,"Lng":127.05798332499299},
{"name":"회룡역","line":"1호선","area":"수도권","address":"경기도 의정부시 호원동 50-5 ","Lat":37.72410074673938,"Lng":127.04737223296308},
{"name":"강남역","line":"2호선","area":"수도권","address":"서울특별시 강남구 역삼동 858 ","Lat":37.4980046091713,"Lng":127.02766309390415},
{"name":"강변역","line":"2호선","area":"수도권","address":"서울특별시 광진구 구의동 546-6 ","Lat":37.5352097692283,"Lng":127.0947196971074},
{"name":"건대입구역","line":"2호선","area":"수도권","address":"서울특별시 광진구 화양동 7-3 ","Lat":37.540454714785525,"Lng":127.06928650506083},
{"name":"교대역","line":"2호선","area":"수도권","address":"서울특별시 서초구 서초동 1748-4 ","Lat":37.494031714766344,"Lng":127.01468693856232},
{"name":"구로디지털단지역","line":"2호선","area":"수도권","address":"서울특별시 구로구 구로동 810-3 ","Lat":37.48532191568928,"Lng":126.90151332298444},
{"name":"구의역","line":"2호선","area":"수도권","address":"서울특별시 광진구 구의동 245-24 ","Lat":37.537207471498334,"Lng":127.08617519972294},
{"name":"까치산역","line":"2호선","area":"수도권","address":"서울특별시 강서구 화곡동 662-5 ","Lat":37.531494502296226,"Lng":126.84694783900994},
{"name":"낙성대역","line":"2호선","area":"수도권","address":"서울특별시 관악구 봉천동 1693-39 ","Lat":37.477185813788374,"Lng":126.9634650757642},
{"name":"당산역","line":"2호선","area":"수도권","address":"서울특별시 영등포구 당산동6가 323-1 ","Lat":37.53492651528036,"Lng":126.90271051834247},
{"name":"대림역","line":"2호선","area":"수도권","address":"서울특별시 구로구 구로동 1204 ","Lat":37.493433268724566,"Lng":126.89494885252773},
{"name":"도림천역","line":"2호선","area":"수도권","address":"서울특별시 구로구 신도림동 323-16 ","Lat":37.514528489251596,"Lng":126.88267053986311},
{"name":"동대문역사문화공원역","line":"2호선","area":"수도권","address":"서울특별시 중구 을지로7가 112-3 ","Lat":37.56574361788535,"Lng":127.00897894622105},
{"name":"뚝섬역","line":"2호선","area":"수도권","address":"서울특별시 성동구 성수동1가 656-745 ","Lat":37.547308307670335,"Lng":127.04736009384857},
{"name":"문래역","line":"2호선","area":"수도권","address":"서울특별시 영등포구 문래동3가 68-1 ","Lat":37.51805785817619,"Lng":126.89484644007732},
{"name":"방배역","line":"2호선","area":"수도권","address":"서울특별시 서초구 방배동 912-14 ","Lat":37.48158038952059,"Lng":126.9976752375174},
{"name":"봉천역","line":"2호선","area":"수도권","address":"서울특별시 관악구 봉천동 979-7 ","Lat":37.48254283192534,"Lng":126.94161412463973},
{"name":"사당역","line":"2호선","area":"수도권","address":"서울특별시 동작구 사당동 1129 ","Lat":37.47662311179629,"Lng":126.98167550493567},
{"name":"삼성역","line":"2호선","area":"수도권","address":"서울특별시 강남구 삼성동 172-66 ","Lat":37.5089238004224,"Lng":127.06319638162162},
{"name":"상왕십리역","line":"2호선","area":"수도권","address":"서울특별시 성동구 하왕십리동 946-14 ","Lat":37.56456650918956,"Lng":127.028916536262},
{"name":"서울대입구역","line":"2호선","area":"수도권","address":"서울특별시 관악구 봉천동 979-2 ","Lat":37.48128141456611,"Lng":126.95275767068983},
{"name":"서초역","line":"2호선","area":"수도권","address":"서울특별시 서초구 서초동 1748-5 ","Lat":37.491910118514106,"Lng":127.00772621400696},
{"name":"선릉역","line":"2호선","area":"수도권","address":"서울특별시 강남구 삼성동 172-66 ","Lat":37.50454843692257,"Lng":127.04898870036394},
{"name":"성내역","line":"2호선","area":"수도권","address":"서울특별시 송파구 신천동 15 ","Lat":37.52072736151721,"Lng":127.10386546212123},
{"name":"성수역","line":"2호선","area":"수도권","address":"서울특별시 성동구 성수동2가 300-1 ","Lat":37.544638540217385,"Lng":127.05601707176132},
{"name":"시청역","line":"2호선","area":"수도권","address":"서울특별시 중구 서소문동 90-1 ","Lat":37.563609440301086,"Lng":126.97531004170236},
{"name":"신답역","line":"2호선","area":"수도권","address":"서울특별시 성동구 용답동 129-2 ","Lat":37.569958238976426,"Lng":127.04706077485125},
{"name":"신당역","line":"2호선","area":"수도권","address":"서울특별시 중구 신당동 99 ","Lat":37.565741385095706,"Lng":127.01951743202221},
{"name":"신대방역","line":"2호선","area":"수도권","address":"서울특별시 동작구 신대방동 643-1 ","Lat":37.48759347655751,"Lng":126.91331915470167},
{"name":"신도림역","line":"2호선","area":"수도권","address":"서울특별시 구로구 신도림동 460-26 ","Lat":37.50863651428741,"Lng":126.89137705598019},
{"name":"신림역","line":"2호선","area":"수도권","address":"서울특별시 관악구 신림동 1467-10 ","Lat":37.48433700412263,"Lng":126.92971635839498},
{"name":"신설동역","line":"2호선","area":"수도권","address":"서울특별시 동대문구 신설동 76-5 ","Lat":37.5747002387429,"Lng":127.02526435314903},
{"name":"신정네거리역","line":"2호선","area":"수도권","address":"서울특별시 양천구 신정동 1231 ","Lat":37.52027987413794,"Lng":126.85284435104201},
{"name":"신천역","line":"2호선","area":"수도권","address":"서울특별시 송파구 잠실동 33 ","Lat":37.511685336014295,"Lng":127.08562632380338},
{"name":"신촌역","line":"2호선","area":"수도권","address":"서울특별시 마포구 노고산동 31-11 ","Lat":37.55530962159307,"Lng":126.93740682301703},
{"name":"아현역","line":"2호선","area":"수도권","address":"서울특별시 마포구 아현동 354-23 ","Lat":37.557449714458734,"Lng":126.95613070513232},
{"name":"양천구청역","line":"2호선","area":"수도권","address":"서울특별시 양천구 신정동 276-7 ","Lat":37.51239344079238,"Lng":126.86567881793309},
{"name":"역삼역","line":"2호선","area":"수도권","address":"서울특별시 강남구 역삼동 804 ","Lat":37.500874086881424,"Lng":127.03697907150972},
{"name":"영등포구청역","line":"2호선","area":"수도권","address":"서울특별시 영등포구 당산동3가 270-1 ","Lat":37.525851056830255,"Lng":126.89668883239987},
{"name":"왕십리역","line":"2호선","area":"수도권","address":"서울특별시 성동구 행당동 192 ","Lat":37.56132189744859,"Lng":127.03762883040913},
{"name":"용답역","line":"2호선","area":"수도권","address":"서울특별시 성동구 용답동 127 ","Lat":37.562239981165185,"Lng":127.05088290343423},
{"name":"용두역","line":"2호선","area":"수도권","address":"서울특별시 동대문구 용두동 47-1 ","Lat":37.57399030720637,"Lng":127.0387000223641},
{"name":"을지로3가역","line":"2호선","area":"수도권","address":"서울특별시 중구 을지로3가 347-3 ","Lat":37.56635718795775,"Lng":126.9909726927101},
{"name":"을지로4가역","line":"2호선","area":"수도권","address":"서울특별시 중구 을지로4가 267-1 ","Lat":37.56667536560988,"Lng":126.9976583052263},
{"name":"을지로입구역","line":"2호선","area":"수도권","address":"서울특별시 중구 을지로1가 100-1 ","Lat":37.56612420781988,"Lng":126.98271257035422},
{"name":"이대역","line":"2호선","area":"수도권","address":"서울특별시 마포구 염리동 8-85 ","Lat":37.556827289922396,"Lng":126.94589650053936},
{"name":"잠실역","line":"2호선","area":"수도권","address":"서울특별시 송파구 잠실동 8 ","Lat":37.51340995969793,"Lng":127.10019735444084},
{"name":"종합운동장역","line":"2호선","area":"수도권","address":"서울특별시 송파구 잠실동 122 ","Lat":37.511115961064796,"Lng":127.07382426084881},
{"name":"충정로역","line":"2호선","area":"수도권","address":"서울특별시 서대문구 충정로3가 319-1 ","Lat":37.55981143502781,"Lng":126.96443957462154},
{"name":"한양대역","line":"2호선","area":"수도권","address":"서울특별시 성동구 행당동 산17 17","Lat":37.55568554659091,"Lng":127.04369975883459},
{"name":"합정역","line":"2호선","area":"수도권","address":"서울특별시 마포구 서교동 393 ","Lat":37.55000222115965,"Lng":126.91456507548223},
{"name":"홍대입구역","line":"2호선","area":"수도권","address":"서울특별시 마포구 동교동 165 ","Lat":37.556907645251634,"Lng":126.92381377241946},
{"name":"가락시장역","line":"3호선","area":"수도권","address":"서울특별시 송파구 가락본동  184-23","Lat":37.49226754942949,"Lng":127.11767348008371},
{"name":"경복궁역","line":"3호선","area":"수도권","address":"서울특별시 종로구 적선동 81-1 ","Lat":37.57590304111514,"Lng":126.97362481313698},
{"name":"경찰병원역","line":"3호선","area":"수도권","address":"서울특별시 송파구 가락동 10-15 ","Lat":37.495758369251185,"Lng":127.12423694261301},
{"name":"고속터미널역","line":"3호선","area":"수도권","address":"서울특별시 서초구 반포동 19-11 ","Lat":37.504898806309754,"Lng":127.00504367779527},
{"name":"교대역","line":"3호선","area":"수도권","address":"서울특별시 서초구 서초동 1748-4 ","Lat":37.49304269981367,"Lng":127.01386308305416},
{"name":"구파발역","line":"3호선","area":"수도권","address":"서울특별시 은평구 진관동 67-26 ","Lat":37.63664910635441,"Lng":126.91888182803093},
{"name":"금호역","line":"3호선","area":"수도권","address":"서울특별시 성동구 금호동4가 1470 번","Lat":37.548329566223295,"Lng":127.01582959688345},
{"name":"남부터미널역","line":"3호선","area":"수도권","address":"서울특별시 서초구 서초동 1748-30 ","Lat":37.48498068825398,"Lng":127.01632083328741},
{"name":"녹번역","line":"3호선","area":"수도권","address":"서울특별시 은평구 녹번동 55 ","Lat":37.600941769100636,"Lng":126.93580768268133},
{"name":"대곡역","line":"3호선","area":"수도권","address":"경기도 고양시 덕양구 대장동 420-1 ","Lat":37.63170276653184,"Lng":126.81107522372739},
{"name":"대청역","line":"3호선","area":"수도권","address":"서울특별시 강남구 일원동 700-9 ","Lat":37.49366224814637,"Lng":127.0795694534132},
{"name":"대치역","line":"3호선","area":"수도권","address":"서울특별시 강남구 대치동 317-3 ","Lat":37.494635335716374,"Lng":127.06348771338727},
{"name":"대화역","line":"3호선","area":"수도권","address":"경기도 고양시 일산서구 대화동 2221 ","Lat":37.67621307881131,"Lng":126.74747375553821},
{"name":"도곡역","line":"3호선","area":"수도권","address":"서울특별시 강남구 도곡동 339-2 ","Lat":37.491269290988896,"Lng":127.05604359212683},
{"name":"독립문역","line":"3호선","area":"수도권","address":"서울특별시 서대문구 현저동 101 ","Lat":37.57452258698688,"Lng":126.95796444437275},
{"name":"동대입구역","line":"3호선","area":"수도권","address":"서울특별시 중구 장충동2가 199-3 ","Lat":37.55911524572277,"Lng":127.00508251406501},
{"name":"마두역","line":"3호선","area":"수도권","address":"경기도 고양시 일산동구 마두동 765-1 ","Lat":37.652256543164796,"Lng":126.7776913192549},
{"name":"매봉역","line":"3호선","area":"수도권","address":"서울특별시 강남구 도곡동 179-2 ","Lat":37.487105657708724,"Lng":127.04695932344285},
{"name":"무악재역","line":"3호선","area":"수도권","address":"서울특별시 서대문구 홍제동 26-1 ","Lat":37.5827254810758,"Lng":126.95020790440307},
{"name":"백석역","line":"3호선","area":"수도권","address":"경기도 고양시 일산동구 백석동 1538 ","Lat":37.64304787437781,"Lng":126.78815327470207},
{"name":"불광역","line":"3호선","area":"수도권","address":"서울특별시 은평구 대조동 14-1 ","Lat":37.61016332541026,"Lng":126.93026256039315},
{"name":"삼송역","line":"3호선","area":"수도권","address":"경기도 고양시 덕양구 삼송동 18-5 ","Lat":37.65316577854389,"Lng":126.89560340019989},
{"name":"수서역","line":"3호선","area":"수도권","address":"서울특별시 강남구 수서동 728 ","Lat":37.487370759223815,"Lng":127.10157222092376},
{"name":"신사역","line":"3호선","area":"수도권","address":"서울특별시 강남구 신사동 667 ","Lat":37.516616276759564,"Lng":127.0206121228223},
{"name":"안국역","line":"3호선","area":"수도권","address":"서울특별시 종로구 안국동 155-2 ","Lat":37.576627390789945,"Lng":126.98551337991236},
{"name":"압구정역","line":"3호선","area":"수도권","address":"서울특별시 강남구 신사동 668 ","Lat":37.52621471303326,"Lng":127.0285307471467},
{"name":"약수역","line":"3호선","area":"수도권","address":"서울특별시 중구 신당동 369-44 ","Lat":37.5548282316833,"Lng":127.01068517779606},
{"name":"양재역","line":"3호선","area":"수도권","address":"서울특별시 서초구 서초동 1366-9 ","Lat":37.48460364293227,"Lng":127.03398770243716},
{"name":"연신내역","line":"3호선","area":"수도권","address":"서울특별시 은평구 갈현동 397 ","Lat":37.61911854854045,"Lng":126.92123100144644},
{"name":"오금역","line":"3호선","area":"수도권","address":"서울특별시 송파구 오금동 44-2 ","Lat":37.50253989041918,"Lng":127.12864795081313},
{"name":"옥수역","line":"3호선","area":"수도권","address":"서울특별시 성동구 옥수동 168-1 ","Lat":37.5417287363672,"Lng":127.01737599808062},
{"name":"원당역","line":"3호선","area":"수도권","address":"경기도 고양시 덕양구 성사동 410-7 ","Lat":37.653401490132396,"Lng":126.84305035476952},
{"name":"을지로3가역","line":"3호선","area":"수도권","address":"서울특별시 중구 을지로3가 282-8 ","Lat":37.56635355143245,"Lng":126.99265935830043},
{"name":"일원역","line":"3호선","area":"수도권","address":"서울특별시 강남구 일원동 717 ","Lat":37.48393873115955,"Lng":127.0840757699745},
{"name":"잠원역","line":"3호선","area":"수도권","address":"서울특별시 서초구 잠원동 100-1 ","Lat":37.512862090239935,"Lng":127.0112499375498},
{"name":"정발산역","line":"3호선","area":"수도권","address":"경기도 고양시 일산동구 마두동 1123 ","Lat":37.659779581182185,"Lng":126.77330670677321},
{"name":"종로3가역","line":"3호선","area":"수도권","address":"서울특별시 종로구 묘동 20-5 ","Lat":37.57169905116192,"Lng":126.99187427691511},
{"name":"주엽역","line":"3호선","area":"수도권","address":"경기도 고양시 일산서구 주엽동 166-7 ","Lat":37.6702138498999,"Lng":126.76127862504238},
{"name":"지축역","line":"3호선","area":"수도권","address":"경기도 고양시 덕양구 지축동 818-64 ","Lat":37.64818964832168,"Lng":126.91379671805808},
{"name":"충무로역","line":"3호선","area":"수도권","address":"서울특별시 중구 필동2가 16-2 ","Lat":37.56166813538126,"Lng":126.99371842191088},
{"name":"학여울역","line":"3호선","area":"수도권","address":"서울특별시 강남구 대치동 514-3 ","Lat":37.49674581527178,"Lng":127.07059745312566},
{"name":"홍제역","line":"3호선","area":"수도권","address":"서울특별시 서대문구 홍제동 161-1 ","Lat":37.5888615792927,"Lng":126.94414332382405},
{"name":"화정역","line":"3호선","area":"수도권","address":"경기도 고양시 덕양구 화정동 1098 ","Lat":37.63466647167829,"Lng":126.83269057093358},
{"name":"경마공원역","line":"4호선","area":"수도권","address":"경기도 과천시 과천동 654 ","Lat":37.44405668213522,"Lng":127.00793951693497},
{"name":"고잔역","line":"4호선","area":"수도권","address":"경기도 안산시 단원구 고잔동 453-67 ","Lat":37.316890868534806,"Lng":126.82313123814802},
{"name":"공단역","line":"4호선","area":"수도권","address":"경기도 안산시 단원구 초지동 27-1 ","Lat":37.32064992670478,"Lng":126.806182894308},
{"name":"과천역","line":"4호선","area":"수도권","address":"경기도 과천시 별양동 2 ","Lat":37.43327316108205,"Lng":126.99644317144265},
{"name":"금정역","line":"4호선","area":"수도권","address":"경기도 군포시 금정동 613 ","Lat":37.37232503913924,"Lng":126.94361423582674},
{"name":"길음역","line":"4호선","area":"수도권","address":"서울특별시 성북구 길음동 877-66 ","Lat":37.60325174687003,"Lng":127.02496040777359},
{"name":"남태령역","line":"4호선","area":"수도권","address":"서울특별시 서초구 방배동 2909 ","Lat":37.46430664235646,"Lng":126.9891448416745},
{"name":"노원역","line":"4호선","area":"수도권","address":"서울특별시 노원구 상계동 602-5 ","Lat":37.65641753026096,"Lng":127.06340036761503},
{"name":"당고개역","line":"4호선","area":"수도권","address":"서울특별시 노원구 상계동 111 ","Lat":37.670326480945846,"Lng":127.07906142723988},
{"name":"대공원역","line":"4호선","area":"수도권","address":"경기도 과천시 과천동 727-1 ","Lat":37.43579097060678,"Lng":127.00651169549923},
{"name":"대야미역","line":"4호선","area":"수도권","address":"경기도 군포시 대야미동 229-1 ","Lat":37.328375527720816,"Lng":126.91719332331155},
{"name":"동대문역","line":"4호선","area":"수도권","address":"서울특별시 종로구 종로6가 287-1 ","Lat":37.57095420418422,"Lng":127.0092835719955},
{"name":"동대문역사문화공원역","line":"4호선","area":"수도권","address":"서울특별시 중구 광희동2가 9 ","Lat":37.565166149942606,"Lng":127.00780936726588},
{"name":"동작역","line":"4호선","area":"수도권","address":"서울특별시 동작구 동작동 327-1 ","Lat":37.50288696988945,"Lng":126.98041457523135},
{"name":"명동역","line":"4호선","area":"수도권","address":"서울특별시 중구 충무로2가 109-2 ","Lat":37.56102985359904,"Lng":126.98650562155234},
{"name":"미아역","line":"4호선","area":"수도권","address":"서울특별시 강북구 미아동 194-1 ","Lat":37.62646349641289,"Lng":127.0261757444729},
{"name":"미아삼거리역","line":"4호선","area":"수도권","address":"서울특별시 강북구 미아동 66-1 ","Lat":37.61332285127748,"Lng":127.03013001716073},
{"name":"반월역","line":"4호선","area":"수도권","address":"경기도 안산시 상록구 건건동 산62-1 62-1","Lat":37.31231160655801,"Lng":126.90371671640833},
{"name":"범계역","line":"4호선","area":"수도권","address":"경기도 안양시 동안구 호계동 1039-2 ","Lat":37.389851501387064,"Lng":126.95078812609366},
{"name":"사당역","line":"4호선","area":"수도권","address":"서울특별시 동작구 사당동 588-44 ","Lat":37.47705585986364,"Lng":126.98170355896634},
{"name":"산본역","line":"4호선","area":"수도권","address":"경기도 군포시 산본동 1231 ","Lat":37.3580832033072,"Lng":126.93301085375218},
{"name":"삼각지역","line":"4호선","area":"수도권","address":"서울특별시 용산구 한강로1가 228-1 ","Lat":37.53453976203464,"Lng":126.97300317102494},
{"name":"상계역","line":"4호선","area":"수도권","address":"서울특별시 노원구 상계동 156-203 ","Lat":37.66063098549075,"Lng":127.07325337887369},
{"name":"상록수역","line":"4호선","area":"수도권","address":"경기도 안산시 상록구 본오동 1177 ","Lat":37.302931848421885,"Lng":126.86641488067897},
{"name":"서울역역","line":"4호선","area":"수도권","address":"서울특별시 용산구 동자동 14-151 ","Lat":37.553089575251704,"Lng":126.97269242156877},
{"name":"선바위역","line":"4호선","area":"수도권","address":"경기도 과천시 과천동 355 ","Lat":37.451919812103085,"Lng":127.00220726665671},
{"name":"성신여대입구역","line":"4호선","area":"수도권","address":"서울특별시 성북구 동선동4가 1 ","Lat":37.592784414985665,"Lng":127.01659277489527},
{"name":"수리산역","line":"4호선","area":"수도권","address":"경기도 군포시 산본동 1231-1 ","Lat":37.35036594857323,"Lng":126.92558023053789},
{"name":"수유역","line":"4호선","area":"수도권","address":"서울특별시 강북구 수유동 140 ","Lat":37.638046671420774,"Lng":127.02567354526744},
{"name":"숙대입구역","line":"4호선","area":"수도권","address":"서울특별시 용산구 갈월동 16-7 ","Lat":37.54516365441464,"Lng":126.97203154194716},
{"name":"신길온천역","line":"4호선","area":"수도권","address":"경기도 안산시 단원구 신길동 216-2 ","Lat":37.33756148934857,"Lng":126.76734368889808},
{"name":"신용산역","line":"4호선","area":"수도권","address":"서울특별시 용산구 한강로2가 181 ","Lat":37.52925148323692,"Lng":126.96792774138416},
{"name":"쌍문역","line":"4호선","area":"수도권","address":"서울특별시 도봉구 창동 703-4 ","Lat":37.648671991678974,"Lng":127.03471394353022},
{"name":"안산역","line":"4호선","area":"수도권","address":"경기도 안산시 단원구 원곡동 377-1 ","Lat":37.327078088739995,"Lng":126.78878390229687},
{"name":"오이도역","line":"4호선","area":"수도권","address":"경기도 시흥시 정왕동 878 ","Lat":37.3618472920658,"Lng":126.73847731514957},
{"name":"이촌역","line":"4호선","area":"수도권","address":"서울특별시 용산구 용산동5가 17-112 ","Lat":37.5224241029475,"Lng":126.97443609494479},
{"name":"인덕원역","line":"4호선","area":"수도권","address":"경기도 안양시 동안구 관양동 1563 ","Lat":37.4019647085841,"Lng":126.97685721737338},
{"name":"정부과천청사역","line":"4호선","area":"수도권","address":"경기도 과천시 별양동 1 ","Lat":37.42659324359318,"Lng":126.98973052766004},
{"name":"정왕역","line":"4호선","area":"수도권","address":"경기도 시흥시 정왕동 2325-12 ","Lat":37.35189238749234,"Lng":126.74287638016054},
{"name":"중앙역","line":"4호선","area":"수도권","address":"경기도 안산시 단원구 고잔동 167-378 ","Lat":37.31612409970135,"Lng":126.83856535899925},
{"name":"창동역","line":"4호선","area":"수도권","address":"서울특별시 도봉구 창동 135-1 ","Lat":37.65324659675549,"Lng":127.0477101967605},
{"name":"총신대입구역","line":"4호선","area":"수도권","address":"서울특별시 동작구 사당동 736-1 ","Lat":37.48671948809646,"Lng":126.98220579988202},
{"name":"충무로역","line":"4호선","area":"수도권","address":"서울특별시 중구 필동2가 16-2 ","Lat":37.56132081347544,"Lng":126.99419847725284},
{"name":"평촌역","line":"4호선","area":"수도권","address":"경기도 안양시 동안구 부림동 1608-1 ","Lat":37.394409358265676,"Lng":126.96391563464559},
{"name":"한대앞역","line":"4호선","area":"수도권","address":"경기도 안산시 상록구 이동 211-5 ","Lat":37.30975667087997,"Lng":126.8536892733202},
{"name":"한성대입구역","line":"4호선","area":"수도권","address":"서울특별시 성북구 삼선동1가 14 ","Lat":37.588442470436796,"Lng":127.00594964975267},
{"name":"혜화역","line":"4호선","area":"수도권","address":"서울특별시 종로구 동숭동 67-2 ","Lat":37.58214640237947,"Lng":127.00193470028515},
{"name":"회현역","line":"4호선","area":"수도권","address":"서울특별시 중구 남창동 64-1 ","Lat":37.55860709781032,"Lng":126.97825333031489},
{"name":"강동역","line":"5호선","area":"수도권","address":"서울특별시 강동구 천호동 447 ","Lat":37.53600453439853,"Lng":127.1322309348644},
{"name":"개롱역","line":"5호선","area":"수도권","address":"서울특별시 송파구 가락동 165-2 ","Lat":37.49803695890279,"Lng":127.13511260560804},
{"name":"개화산역","line":"5호선","area":"수도권","address":"서울특별시 강서구 방화동 848 ","Lat":37.5725263959333,"Lng":126.80688746827957},
{"name":"거여역","line":"5호선","area":"수도권","address":"서울특별시 송파구 거여동 20-14 ","Lat":37.49348558526804,"Lng":127.14364652556515},
{"name":"고덕역","line":"5호선","area":"수도권","address":"서울특별시 강동구 고덕동 310 ","Lat":37.555112599159244,"Lng":127.15415908815028},
{"name":"공덕역","line":"5호선","area":"수도권","address":"서울특별시 마포구 공덕동 423-29 ","Lat":37.54401540824929,"Lng":126.95106711388125},
{"name":"광나루역","line":"5호선","area":"수도권","address":"서울특별시 광진구 광장동 237 ","Lat":37.545396625934885,"Lng":127.10364990756736},
{"name":"광화문역","line":"5호선","area":"수도권","address":"서울특별시 종로구 세종로 1-68 ","Lat":37.57168388665516,"Lng":126.97647877167627},
{"name":"군자역","line":"5호선","area":"수도권","address":"서울특별시 광진구 능동 275-5 ","Lat":37.557222410446585,"Lng":127.0795363736247},
{"name":"굽은다리역","line":"5호선","area":"수도권","address":"서울특별시 강동구 명일동 345-12 ","Lat":37.545606857524696,"Lng":127.14294976191121},
{"name":"길동역","line":"5호선","area":"수도권","address":"서울특별시 강동구 길동 378 ","Lat":37.53783665079461,"Lng":127.14003998216603},
{"name":"김포공항역","line":"5호선","area":"수도권","address":"서울특별시 강서구 방화동 886 ","Lat":37.561863511861475,"Lng":126.80206579552075},
{"name":"까치산역","line":"5호선","area":"수도권","address":"서울특별시 강서구 화곡동 662-5 ","Lat":37.53218444478821,"Lng":126.84655254438736},
{"name":"답십리역","line":"5호선","area":"수도권","address":"서울특별시 성동구 용답동 99 ","Lat":37.56713605303019,"Lng":127.0524282769822},
{"name":"동대문역사문화공원역","line":"5호선","area":"수도권","address":"서울특별시 중구 광희동1가 235-6 ","Lat":37.564757915573175,"Lng":127.00533583749547},
{"name":"둔촌동역","line":"5호선","area":"수도권","address":"서울특별시 강동구 둔촌동 416 ","Lat":37.52772638491987,"Lng":127.13627522282331},
{"name":"마곡역","line":"5호선","area":"수도권","address":"서울특별시 강서구 가양동 530-6 ","Lat":37.56032477938679,"Lng":126.82470474167658},
{"name":"마장역","line":"5호선","area":"수도권","address":"서울특별시 성동구 마장동 772 ","Lat":37.566195194800194,"Lng":127.04301095153231},
{"name":"마천역","line":"5호선","area":"수도권","address":"서울특별시 송파구 마천동 183-94 ","Lat":37.49508352640982,"Lng":127.15283378414486},
{"name":"마포역","line":"5호선","area":"수도권","address":"서울특별시 마포구 도화동 160 ","Lat":37.53977219582618,"Lng":126.94607976408291},
{"name":"명일역","line":"5호선","area":"수도권","address":"서울특별시 강동구 명일동 312 ","Lat":37.55137264943777,"Lng":127.1440608616569},
{"name":"목동역","line":"5호선","area":"수도권","address":"서울특별시 양천구 목동 926-3 ","Lat":37.52613946890189,"Lng":126.8643396168716},
{"name":"발산역","line":"5호선","area":"수도권","address":"서울특별시 강서구 마곡동 727-1212 ","Lat":37.558758787761235,"Lng":126.83764345644485},
{"name":"방이역","line":"5호선","area":"수도권","address":"서울특별시 송파구 방이동 217-2 ","Lat":37.508620614564364,"Lng":127.12600979628617},
{"name":"방화역","line":"5호선","area":"수도권","address":"서울특별시 강서구 방화동 829-15 ","Lat":37.5776955004448,"Lng":126.81287319956218},
{"name":"상일동역","line":"5호선","area":"수도권","address":"서울특별시 강동구 상일동 148 ","Lat":37.55666176405467,"Lng":127.16548248984193},
{"name":"서대문역","line":"5호선","area":"수도권","address":"서울특별시 종로구 평동 210 ","Lat":37.56584115531515,"Lng":126.96669934837098},
{"name":"송정역","line":"5호선","area":"수도권","address":"서울특별시 강서구 공항동 29-5 ","Lat":37.56126259073062,"Lng":126.81216029873089},
{"name":"신금호역","line":"5호선","area":"수도권","address":"서울특별시 성동구 금호동2가 223-1 ","Lat":37.55453433533156,"Lng":127.02084113093085},
{"name":"신길역","line":"5호선","area":"수도권","address":"서울특별시 영등포구 영등포동1가 35 ","Lat":37.517741025967304,"Lng":126.9151224668245},
{"name":"신정역","line":"5호선","area":"수도권","address":"서울특별시 양천구 신정동 1090 ","Lat":37.525051948484844,"Lng":126.8562105782211},
{"name":"아차산역","line":"5호선","area":"수도권","address":"서울특별시 광진구 능동 256-16 ","Lat":37.55209279867112,"Lng":127.08967194254292},
{"name":"애오개역","line":"5호선","area":"수도권","address":"서울특별시 마포구 아현동 612 ","Lat":37.55366208871227,"Lng":126.95678330404502},
{"name":"양평역","line":"5호선","area":"수도권","address":"서울특별시 영등포구 양평동2가 33-79 ","Lat":37.52568099524564,"Lng":126.88623781836066},
{"name":"여의나루역","line":"5호선","area":"수도권","address":"서울특별시 영등포구 여의도동 84-4 ","Lat":37.52721011831946,"Lng":126.93284967707552},
{"name":"여의도역","line":"5호선","area":"수도권","address":"서울특별시 영등포구 여의도동 3 ","Lat":37.52178962185744,"Lng":126.92431776487535},
{"name":"영등포구청역","line":"5호선","area":"수도권","address":"서울특별시 영등포구 당산동3가 556-1 ","Lat":37.52426293960253,"Lng":126.89547906257003},
{"name":"영등포시장역","line":"5호선","area":"수도권","address":"서울특별시 영등포구 영등포동5가 62-1 ","Lat":37.522775956987935,"Lng":126.90513954746315},
{"name":"오금역","line":"5호선","area":"수도권","address":"서울특별시 송파구 오금동 44-2 ","Lat":37.50253989041918,"Lng":127.12864795081313},
{"name":"오목교역","line":"5호선","area":"수도권","address":"서울특별시 양천구 목1동 406-30 ","Lat":37.52462044607557,"Lng":126.87509879307456},
{"name":"올림픽공원역","line":"5호선","area":"수도권","address":"서울특별시 송파구 방이동 89-28 ","Lat":37.5166957911029,"Lng":127.13113069175901},
{"name":"왕십리역","line":"5호선","area":"수도권","address":"서울특별시 성동구 행당동 192 ","Lat":37.5620216918752,"Lng":127.03725763496266},
{"name":"우장산역","line":"5호선","area":"수도권","address":"서울특별시 강서구 화곡동 1089-3 ","Lat":37.548853042712885,"Lng":126.83638252746204},
{"name":"을지로4가역","line":"5호선","area":"수도권","address":"서울특별시 중구 주교동 191 ","Lat":37.567489954395086,"Lng":126.99808887485668},
{"name":"장한평역","line":"5호선","area":"수도권","address":"서울특별시 동대문구 장안동 472-3 ","Lat":37.56153915280694,"Lng":127.06470084359013},
{"name":"종로3가역","line":"5호선","area":"수도권","address":"서울특별시 종로구 돈의동 39-1 ","Lat":37.57264129399249,"Lng":126.99036728334079},
{"name":"천호역","line":"5호선","area":"수도권","address":"서울특별시 강동구 천호동 455 ","Lat":37.53864432128521,"Lng":127.12363456016168},
{"name":"청구역","line":"5호선","area":"수도권","address":"서울특별시 중구 신당동 295-2 ","Lat":37.56027052599458,"Lng":127.01391837277197},
{"name":"충정로역","line":"5호선","area":"수도권","address":"서울특별시 서대문구 충정로3가 248-1 ","Lat":37.560438498054616,"Lng":126.9629934380265},
{"name":"행당역","line":"5호선","area":"수도권","address":"서울특별시 성동구 행당동 317-241 ","Lat":37.55747259492129,"Lng":127.02968757161324},
{"name":"화곡역","line":"5호선","area":"수도권","address":"서울특별시 강서구 화곡동 1089-54 ","Lat":37.54164896563199,"Lng":126.84047749530541},
{"name":"고려대역","line":"6호선","area":"수도권","address":"서울특별시 성북구 종암동 29-18 ","Lat":37.590465668019704,"Lng":127.03590675006902},
{"name":"공덕역","line":"6호선","area":"수도권","address":"서울특별시 마포구 공덕동 439 ","Lat":37.5435731700244,"Lng":126.9520012215435},
{"name":"광흥창역","line":"6호선","area":"수도권","address":"서울특별시 마포구 창전동 145-17 ","Lat":37.5475471227429,"Lng":126.93190381345836},
{"name":"구산역","line":"6호선","area":"수도권","address":"서울특별시 은평구 구산동 1 ","Lat":37.611397209199815,"Lng":126.91734421076688},
{"name":"녹사평역","line":"6호선","area":"수도권","address":"서울특별시 용산구 용산동4가 4 ","Lat":37.534641781007245,"Lng":126.98691893764138},
{"name":"대흥역","line":"6호선","area":"수도권","address":"서울특별시 마포구 대흥동 128-1 ","Lat":37.54774042055805,"Lng":126.942380329961},
{"name":"독바위역","line":"6호선","area":"수도권","address":"서울특별시 은평구 불광동 13-33 ","Lat":37.618460348172974,"Lng":126.93308897284064},
{"name":"돌곶이역","line":"6호선","area":"수도권","address":"서울특별시 성북구 석관동 349-8 ","Lat":37.610562528819834,"Lng":127.0564542000298},
{"name":"동묘앞역","line":"6호선","area":"수도권","address":"서울특별시 종로구 창신동 263-2 ","Lat":37.572323478410524,"Lng":127.01571814154175},
{"name":"디지털미디어시티역","line":"6호선","area":"수도권","address":"서울특별시 은평구 증산동 223-26 ","Lat":37.5761367586515,"Lng":126.90139359599877},
{"name":"마포구청역","line":"6호선","area":"수도권","address":"서울특별시 마포구 성산동 592 ","Lat":37.563487893827265,"Lng":126.9035147036727},
{"name":"망원역","line":"6호선","area":"수도권","address":"서울특별시 마포구 망원동 378 ","Lat":37.55613353427156,"Lng":126.91013016259933},
{"name":"버티고개역","line":"6호선","area":"수도권","address":"서울특별시 중구 신당동 366-454 ","Lat":37.54819422628666,"Lng":127.00718530455299},
{"name":"보문역","line":"6호선","area":"수도권","address":"서울특별시 성북구 보문동1가 127-1 ","Lat":37.58540151974124,"Lng":127.01944113772589},
{"name":"봉화산역","line":"6호선","area":"수도권","address":"서울특별시 중랑구 신내동 643-1 ","Lat":37.617440586225904,"Lng":127.09134638917934},
{"name":"불광역","line":"6호선","area":"수도권","address":"서울특별시 은평구 대조동 14-1 ","Lat":37.611003518780414,"Lng":126.92951433251645},
{"name":"삼각지역","line":"6호선","area":"수도권","address":"서울특별시 용산구 한강로1가 45-1 ","Lat":37.53565665798088,"Lng":126.97399490182131},
{"name":"상수역","line":"6호선","area":"수도권","address":"서울특별시 마포구 상수동 309-10 ","Lat":37.54780878953854,"Lng":126.92300515148048},
{"name":"상월곡역","line":"6호선","area":"수도권","address":"서울특별시 성북구 상월곡동 26-1 ","Lat":37.60666366447217,"Lng":127.04891513855222},
{"name":"새절역","line":"6호선","area":"수도권","address":"서울특별시 은평구 신사동 337-5 ","Lat":37.59108088906647,"Lng":126.91362979166189},
{"name":"석계역","line":"6호선","area":"수도권","address":"서울특별시 노원구 월계동 25-2 ","Lat":37.61502636058755,"Lng":127.0659918588787},
{"name":"신당역","line":"6호선","area":"수도권","address":"서울특별시 중구 흥인동 162-1 ","Lat":37.566137373966995,"Lng":127.01620693594958},
{"name":"안암역","line":"6호선","area":"수도권","address":"서울특별시 성북구 안암동5가 146-1 ","Lat":37.58636500086647,"Lng":127.02918862703955},
{"name":"약수역","line":"6호선","area":"수도권","address":"서울특별시 중구 신당동 369-2 ","Lat":37.5541672259918,"Lng":127.01029778290702},
{"name":"역촌역","line":"6호선","area":"수도권","address":"서울특별시 은평구 녹번동 144-69 ","Lat":37.60638448442446,"Lng":126.92293233495576},
{"name":"연신내역","line":"6호선","area":"수도권","address":"서울특별시 은평구 갈현동 397 ","Lat":37.618652773686655,"Lng":126.92054674938151},
{"name":"월곡역","line":"6호선","area":"수도권","address":"서울특별시 성북구 하월곡동 35-1 ","Lat":37.60199107327001,"Lng":127.04157930356286},
{"name":"월드컵경기장역","line":"6호선","area":"수도권","address":"서울특별시 마포구 성산동 420 ","Lat":37.569728547086,"Lng":126.89925757420446},
{"name":"응암역","line":"6호선","area":"수도권","address":"서울특별시 은평구 역촌동 85-41 ","Lat":37.598541875214565,"Lng":126.91563911170181},
{"name":"이태원역","line":"6호선","area":"수도권","address":"서울특별시 용산구 이태원동 119-23 ","Lat":37.53459942247126,"Lng":126.99462486878492},
{"name":"증산역","line":"6호선","area":"수도권","address":"서울특별시 은평구 증산동 199-8 ","Lat":37.58399894636127,"Lng":126.90973586274728},
{"name":"창신역","line":"6호선","area":"수도권","address":"서울특별시 종로구 창신동 20-8 ","Lat":37.5794294790698,"Lng":127.01533037150344},
{"name":"청구역","line":"6호선","area":"수도권","address":"서울특별시 중구 신당동 295-2 ","Lat":37.55988920180573,"Lng":127.013572514279},
{"name":"태릉입구역","line":"6호선","area":"수도권","address":"서울특별시 노원구 공릉동 616-4 ","Lat":37.617384183919675,"Lng":127.07478643481664},
{"name":"한강진역","line":"6호선","area":"수도권","address":"서울특별시 용산구 한남동 726-494 ","Lat":37.539588747563975,"Lng":127.00177728015488},
{"name":"합정역","line":"6호선","area":"수도권","address":"서울특별시 마포구 합정동 414 ","Lat":37.54902008141644,"Lng":126.91358341501333},
{"name":"화랑대역","line":"6호선","area":"수도권","address":"서울특별시 노원구 공릉동 285-2 ","Lat":37.619895047563965,"Lng":127.08364766129803},
{"name":"효창공원앞역","line":"6호선","area":"수도권","address":"서울특별시 용산구 효창동 80 ","Lat":37.53935798299511,"Lng":126.96138408309469},
{"name":"가산디지털단지역","line":"7호선","area":"수도권","address":"서울특별시 금천구 가산동 464-2 ","Lat":37.48042286446163,"Lng":126.8825561191774},
{"name":"강남구청역","line":"7호선","area":"수도권","address":"서울특별시 강남구 삼성동 111-44 ","Lat":37.51722751443718,"Lng":127.04132806346152},
{"name":"건대입구역","line":"7호선","area":"수도권","address":"서울특별시 광진구 화양동 6-3 ","Lat":37.540847353459085,"Lng":127.07109215707547},
{"name":"고속터미널역","line":"7호선","area":"수도권","address":"서울특별시 서초구 반포동 19-11 ","Lat":37.50358417642263,"Lng":127.00515158092665},
{"name":"공릉역","line":"7호선","area":"수도권","address":"서울특별시 노원구 공릉동 385-4 ","Lat":37.62585757702819,"Lng":127.0729482854855},
{"name":"광명사거리역","line":"7호선","area":"수도권","address":"경기도 광명시 광명동 158-211 ","Lat":37.47948703628756,"Lng":126.85442857172774},
{"name":"군자역","line":"7호선","area":"수도권","address":"서울특별시 광진구 능동 275-5 ","Lat":37.557584381680996,"Lng":127.07973565746923},
{"name":"남구로역","line":"7호선","area":"수도권","address":"서울특별시 구로구 구로동 801-95 ","Lat":37.48616229735337,"Lng":126.88731028728742},
{"name":"남성역","line":"7호선","area":"수도권","address":"서울특별시 동작구 사당동 산25-33 25-33","Lat":37.484944146022976,"Lng":126.9707190594568},
{"name":"내방역","line":"7호선","area":"수도권","address":"서울특별시 서초구 방배동 874-16 ","Lat":37.48777247819395,"Lng":126.99364623222945},
{"name":"노원역","line":"7호선","area":"수도권","address":"서울특별시 노원구 상계동 729 ","Lat":37.65459323683765,"Lng":127.06060132694739},
{"name":"논현역","line":"7호선","area":"수도권","address":"서울특별시 강남구 논현동 280 ","Lat":37.5112735865247,"Lng":127.02176772303518},
{"name":"대림역","line":"7호선","area":"수도권","address":"서울특별시 영등포구 대림동 1050-17 ","Lat":37.492873038693965,"Lng":126.89670989564387},
{"name":"도봉산역","line":"7호선","area":"수도권","address":"서울특별시 도봉구 도봉동 38-3 ","Lat":37.689673677266185,"Lng":127.04639487202567},
{"name":"뚝섬유원지역","line":"7호선","area":"수도권","address":"서울특별시 광진구 자양동 73-2 ","Lat":37.53160431094919,"Lng":127.0667374516733},
{"name":"마들역","line":"7호선","area":"수도권","address":"서울특별시 노원구 상계동 650 ","Lat":37.66544532482114,"Lng":127.05766510780319},
{"name":"먹골역","line":"7호선","area":"수도권","address":"서울특별시 중랑구 묵동 189-5 ","Lat":37.610847808746286,"Lng":127.07775552578033},
{"name":"면목역","line":"7호선","area":"수도권","address":"서울특별시 중랑구 면목동 282-6 ","Lat":37.588812114084334,"Lng":127.0875384500415},
{"name":"반포역","line":"7호선","area":"수도권","address":"서울특별시 서초구 잠원동 103 ","Lat":37.50828105747722,"Lng":127.0118871331748},
{"name":"보라매역","line":"7호선","area":"수도권","address":"서울특별시 동작구 대방동 466-51 ","Lat":37.50000195465137,"Lng":126.92032109420458},
{"name":"사가정역","line":"7호선","area":"수도권","address":"서울특별시 중랑구 면목동 495 ","Lat":37.58103487687719,"Lng":127.08855030522352},
{"name":"상도역","line":"7호선","area":"수도권","address":"서울특별시 동작구 상도1동 702-1 ","Lat":37.50314190328714,"Lng":126.94779308557148},
{"name":"상봉역","line":"7호선","area":"수도권","address":"서울특별시 중랑구 상봉동 100-46 ","Lat":37.5956824170833,"Lng":127.08576739903684},
{"name":"수락산역","line":"7호선","area":"수도권","address":"서울특별시 노원구 상계동 1132-9 ","Lat":37.67795110605121,"Lng":127.05534189680039},
{"name":"숭실대입구역","line":"7호선","area":"수도권","address":"서울특별시 동작구 상도동 514 ","Lat":37.4964441371194,"Lng":126.95355274114556},
{"name":"신대방삼거리역","line":"7호선","area":"수도권","address":"서울특별시 동작구 대방동 406-10 ","Lat":37.49978554582498,"Lng":126.92822951280084},
{"name":"신풍역","line":"7호선","area":"수도권","address":"서울특별시 영등포구 신길동 3599 ","Lat":37.500195495045375,"Lng":126.90900880712795},
{"name":"어린이대공원역","line":"7호선","area":"수도권","address":"서울특별시 광진구 화양동 164-1 ","Lat":37.54797542915812,"Lng":127.07463655176531},
{"name":"온수역","line":"7호선","area":"수도권","address":"서울특별시 구로구 온수동 53-16 ","Lat":37.492018133105475,"Lng":126.82388624031061},
{"name":"용마산역","line":"7호선","area":"수도권","address":"서울특별시 중랑구 면목동 1316-5 ","Lat":37.57385850596197,"Lng":127.08686028019773},
{"name":"장승배기역","line":"7호선","area":"수도권","address":"서울특별시 동작구 상도동 26-20 ","Lat":37.504975722179616,"Lng":126.93923945084393},
{"name":"장암역","line":"7호선","area":"수도권","address":"경기도 의정부시 장암동 160-8 ","Lat":37.700296753667295,"Lng":127.05310834106055},
{"name":"중계역","line":"7호선","area":"수도권","address":"서울특별시 노원구 중계동 503-3 ","Lat":37.64556445836139,"Lng":127.06395573505336},
{"name":"중곡역","line":"7호선","area":"수도권","address":"서울특별시 광진구 중곡동 273-2 ","Lat":37.56560181009452,"Lng":127.0841310400958},
{"name":"중화역","line":"7호선","area":"수도권","address":"서울특별시 중랑구 중화동 50-3 ","Lat":37.60264256587349,"Lng":127.07932894763204},
{"name":"천왕역","line":"7호선","area":"수도권","address":"서울특별시 구로구 오류동 174-5 ","Lat":37.48681278148975,"Lng":126.83874653239285},
{"name":"철산역","line":"7호선","area":"수도권","address":"경기도 광명시 철산동 526 ","Lat":37.47625970279444,"Lng":126.86830482320912},
{"name":"청담역","line":"7호선","area":"수도권","address":"서울특별시 강남구 청담동 77-76 ","Lat":37.51918757819581,"Lng":127.05198201529959},
{"name":"총신대입구역","line":"7호선","area":"수도권","address":"서울특별시 동작구 사당동 144-4 ","Lat":37.48544876081505,"Lng":126.98217778683417},
{"name":"태릉입구역","line":"7호선","area":"수도권","address":"서울특별시 노원구 공릉동 616-4 ","Lat":37.618560210509074,"Lng":127.07538357156943},
{"name":"하계역","line":"7호선","area":"수도권","address":"서울특별시 노원구 하계동 273-5 ","Lat":37.63602042836051,"Lng":127.0682561465945},
{"name":"학동역","line":"7호선","area":"수도권","address":"서울특별시 강남구 논현동 279-67 ","Lat":37.51430124427482,"Lng":127.03163734205995},
{"name":"가락시장역","line":"8호선","area":"수도권","address":"서울특별시 송파구 가락본동  184-23","Lat":37.49226754942949,"Lng":127.11767348008371},
{"name":"강동구청역","line":"8호선","area":"수도권","address":"서울특별시 강동구 성내동 319 ","Lat":37.53057524188713,"Lng":127.12058346248394},
{"name":"남한산성입구역","line":"8호선","area":"수도권","address":"경기도 성남시 수정구 단대동 96 ","Lat":37.45160308522919,"Lng":127.15986768862419},
{"name":"단대오거리역","line":"8호선","area":"수도권","address":"경기도 성남시 수정구 신흥동 2467 ","Lat":37.445111247219906,"Lng":127.15675316508029},
{"name":"모란역","line":"8호선","area":"수도권","address":"경기도 성남시 수정구 수진동 4518 ","Lat":37.43401682207625,"Lng":127.13028916017227},
{"name":"몽촌토성역","line":"8호선","area":"수도권","address":"서울특별시 송파구 신천동 19 ","Lat":37.51770394352442,"Lng":127.11278173427255},
{"name":"문정역","line":"8호선","area":"수도권","address":"서울특별시 송파구 문정동 119-4 ","Lat":37.48603217881563,"Lng":127.12251849006643},
{"name":"복정역","line":"8호선","area":"수도권","address":"서울특별시 송파구 장지동 596-21 ","Lat":37.471061012020904,"Lng":127.12678577419572},
{"name":"산성역","line":"8호선","area":"수도권","address":"경기도 성남시 수정구 신흥동 7-6 ","Lat":37.45670551254436,"Lng":127.15010129372229},
{"name":"석촌역","line":"8호선","area":"수도권","address":"서울특별시 송파구 석촌동 209 ","Lat":37.50550531918513,"Lng":127.10702182354049},
{"name":"송파역","line":"8호선","area":"수도권","address":"서울특별시 송파구 가락동 459-4 ","Lat":37.49980488607256,"Lng":127.11224679457963},
{"name":"수진역","line":"8호선","area":"수도권","address":"경기도 성남시 수정구 수진동 2205-1 ","Lat":37.4373075661102,"Lng":127.14041004381338},
{"name":"신흥역","line":"8호선","area":"수도권","address":"경기도 성남시 수정구 신흥동 2467 ","Lat":37.44100840804202,"Lng":127.14753247976392},
{"name":"암사역","line":"8호선","area":"수도권","address":"서울특별시 강동구 암사동 501 ","Lat":37.550215875755235,"Lng":127.12756219572096},
{"name":"잠실역","line":"8호선","area":"수도권","address":"서울특별시 송파구 신천동 7-4 ","Lat":37.51482235286097,"Lng":127.10464861532273},
{"name":"장지역","line":"8호선","area":"수도권","address":"서울특별시 송파구 장지동 201-5 ","Lat":37.47875194787313,"Lng":127.1262215582733},
{"name":"천호역","line":"8호선","area":"수도권","address":"서울특별시 강동구 천호동 455 ","Lat":37.538064676691356,"Lng":127.12323397872052},
{"name":"가양역","line":"9호선","area":"수도권","address":"서울특별시 강서구 가양동 14-61 ","Lat":37.56162445262579,"Lng":126.85429409544216},
{"name":"개화역","line":"9호선","area":"수도권","address":"서울특별시 강서구 개화동 493-2 ","Lat":37.578647704830914,"Lng":126.79743855292136},
{"name":"고속터미널역","line":"9호선","area":"수도권","address":"서울특별시 서초구 반포동 19-11 ","Lat":37.50606414436926,"Lng":127.00432698364645},
{"name":"공항시장역","line":"9호선","area":"수도권","address":"서울특별시 강서구 공항동 산20-2 20-2","Lat":37.56385169619537,"Lng":126.81068172025755},
{"name":"구반포역","line":"9호선","area":"수도권","address":"서울특별시 서초구 반포동 817 ","Lat":37.50149686570175,"Lng":126.98746812750014},
{"name":"국회의사당역","line":"9호선","area":"수도권","address":"서울특별시 영등포구 여의도동 1-6 ","Lat":37.52820057418253,"Lng":126.91790144457042},
{"name":"김포공항역","line":"9호선","area":"수도권","address":"서울특별시 강서구 방화동 886 ","Lat":37.56198097069473,"Lng":126.8020978730222},
{"name":"노들역","line":"9호선","area":"수도권","address":"서울특별시 동작구 본동 344-10 ","Lat":37.51296694055921,"Lng":126.95327714275206},
{"name":"노량진역","line":"9호선","area":"수도권","address":"서울특별시 동작구 노량진동 60-11 ","Lat":37.51364039369733,"Lng":126.94087027496403},
{"name":"당산역","line":"9호선","area":"수도권","address":"서울특별시 영등포구 당산동6가 227-1 ","Lat":37.53394680177277,"Lng":126.90200072177873},
{"name":"동작역","line":"9호선","area":"수도권","address":"서울특별시 동작구 동작동 326 ","Lat":37.50337864636679,"Lng":126.97787444768498},
{"name":"등촌역","line":"9호선","area":"수도권","address":"서울특별시 강서구 등촌동 666-94 ","Lat":37.55074963495029,"Lng":126.86557376873874},
{"name":"마곡나루역","line":"9호선","area":"수도권","address":"서울특별시 강서구 마곡동 367-6 ","Lat":37.56682949485216,"Lng":126.82735329639299},
{"name":"사평역","line":"9호선","area":"수도권","address":"서울특별시 서초구 반포동 128-7 ","Lat":37.504511905312036,"Lng":127.01479823597515},
{"name":"샛강역","line":"9호선","area":"수도권","address":"서울특별시 영등포구 여의도동 5-6 ","Lat":37.51680351020555,"Lng":126.92891406024538},
{"name":"선유도역","line":"9호선","area":"수도권","address":"서울특별시 영등포구 양평동5가 66-1 ","Lat":37.53792648115647,"Lng":126.89395391943738},
{"name":"신논현역","line":"9호선","area":"수도권","address":"서울특별시 강남구 역삼동 800 ","Lat":37.50482613735502,"Lng":127.02553889814484},
{"name":"신목동역","line":"9호선","area":"수도권","address":"서울특별시 양천구 목동 136-2 ","Lat":37.544339143045114,"Lng":126.88312027683031},
{"name":"신반포역","line":"9호선","area":"수도권","address":"서울특별시 서초구 반포동 128-1 ","Lat":37.50355240410462,"Lng":126.99605868864914},
{"name":"신방화역","line":"9호선","area":"수도권","address":"서울특별시 강서구 방화동 217-156 ","Lat":37.567550971033114,"Lng":126.81747131615766},
{"name":"양천향교역","line":"9호선","area":"수도권","address":"서울특별시 강서구 가양동 159-3 ","Lat":37.568180869300726,"Lng":126.84195718456},
{"name":"여의도역","line":"9호선","area":"수도권","address":"서울특별시 영등포구 여의도동 2-6 ","Lat":37.521484026905625,"Lng":126.92440133582225},
{"name":"염창역","line":"9호선","area":"수도권","address":"서울특별시 강서구 염창동 284-84 ","Lat":37.547036266928274,"Lng":126.87488690621004},
{"name":"증미역","line":"9호선","area":"수도권","address":"서울특별시 강서구 등촌동 666-40 ","Lat":37.558198895889745,"Lng":126.86065073117337},
{"name":"흑석역","line":"9호선","area":"수도권","address":"서울특별시 동작구 흑석동 4 ","Lat":37.50923591195839,"Lng":126.9634298202855},
{"name":"언주역","line":"9호선","area":"수도권","address":"서울특별시 강남구 논현동 279-165 ","Lat":37.507381893285846,"Lng":127.03393219103646},
{"name":"선정릉역","line":"9호선","area":"수도권","address":"서울특별시 강남구 삼성동 111-114 ","Lat":37.51019838875127,"Lng":127.04344253538162},
{"name":"삼성중앙역","line":"9호선","area":"수도권","address":"서울특별시 강남구 삼성동 111-147 ","Lat":37.51300520781155,"Lng":127.05296503288162},
{"name":"봉은사역","line":"9호선","area":"수도권","address":"서울특별시 강남구 삼성동 172 ","Lat":37.514306812758974,"Lng":127.06025600856961},
{"name":"종합운동장역","line":"9호선","area":"수도권","address":"서울특별시 송파구 잠실동 123 ","Lat":37.51145146266569,"Lng":127.07639910864788},
{"name":"개포동역","line":"분당선","area":"수도권","address":"서울특별시 강남구 개포동 195 ","Lat":37.48923508426206,"Lng":127.06654034743539},
{"name":"경원대역","line":"분당선","area":"수도권","address":"경기도 성남시 수정구 태평동 7131 ","Lat":37.44884917322827,"Lng":127.12671585842412},
{"name":"구룡역","line":"분당선","area":"수도권","address":"서울특별시 강남구 개포동 175-3 ","Lat":37.48705310037382,"Lng":127.0595340956402},
{"name":"대모산입구역","line":"분당선","area":"수도권","address":"서울특별시 강남구 일원동 700 ","Lat":37.491410368208854,"Lng":127.072744200964},
{"name":"도곡역","line":"분당선","area":"수도권","address":"서울특별시 강남구 도곡동 467-5 ","Lat":37.49098511769675,"Lng":127.05543651799015},
{"name":"모란역","line":"분당선","area":"수도권","address":"경기도 성남시 중원구 성남동 1575 ","Lat":37.43218792403563,"Lng":127.12910124614504},
{"name":"미금역","line":"분당선","area":"수도권","address":"경기도 성남시 분당구 금곡동 222 ","Lat":37.35013935497056,"Lng":127.10898662301332},
{"name":"보정역","line":"분당선","area":"수도권","address":"경기도 용인시 기흥구 보정동 1285 ","Lat":37.31280184878822,"Lng":127.10825351340017},
{"name":"복정역","line":"분당선","area":"수도권","address":"서울특별시 송파구 장지동 596-21 ","Lat":37.469816646163785,"Lng":127.1266645653001},
{"name":"서현역","line":"분당선","area":"수도권","address":"경기도 성남시 분당구 서현동 263 ","Lat":37.384991752165284,"Lng":127.12328894859971},
{"name":"선릉역","line":"분당선","area":"수도권","address":"서울특별시 강남구 삼성동 172-66 ","Lat":37.50497079903606,"Lng":127.0488476262243},
{"name":"수내역","line":"분당선","area":"수도권","address":"경기도 성남시 분당구 수내동 14 ","Lat":37.378499826158055,"Lng":127.11425225949007},
{"name":"수서역","line":"분당선","area":"수도권","address":"서울특별시 강남구 수서동 728 ","Lat":37.487701030592504,"Lng":127.10116119128884},
{"name":"야탑역","line":"분당선","area":"수도권","address":"경기도 성남시 분당구 야탑동 488-1 ","Lat":37.411388174358194,"Lng":127.12869783206091},
{"name":"오리역","line":"분당선","area":"수도권","address":"경기도 성남시 분당구 구미동 197-1 ","Lat":37.33989434508914,"Lng":127.10902848305123},
{"name":"이매역","line":"분당선","area":"수도권","address":"경기도 성남시 분당구 이매동 129-1 ","Lat":37.3959138527634,"Lng":127.128312009941},
{"name":"정자역","line":"분당선","area":"수도권","address":"경기도 성남시 분당구 정자동 95-1 ","Lat":37.36610009781431,"Lng":127.10813213225342},
{"name":"죽전역","line":"분당선","area":"수도권","address":"경기도 용인시 수지구 죽전동 1286 ","Lat":37.324635910595966,"Lng":127.10742562472123},
{"name":"태평역","line":"분당선","area":"수도권","address":"경기도 성남시 수정구 수진동 4808 ","Lat":37.43990947551448,"Lng":127.12779144413969},
{"name":"한티역","line":"분당선","area":"수도권","address":"서울특별시 강남구 대치동 1011-28 ","Lat":37.496272289469914,"Lng":127.05292727346051},
{"name":"간석오거리역","line":"인천1호선","area":"수도권","address":"인천광역시 남동구 간석동 215-1 ","Lat":37.46696671902596,"Lng":126.70792282298902},
{"name":"갈산역","line":"인천1호선","area":"수도권","address":"인천광역시 부평구 청천동 112 ","Lat":37.517131422886244,"Lng":126.72158363804965},
{"name":"경인교대입구역","line":"인천1호선","area":"수도권","address":"인천광역시 계양구 계산동 1034 ","Lat":37.53824498330644,"Lng":126.72264931231663},
{"name":"계산역","line":"인천1호선","area":"수도권","address":"인천광역시 계양구 계산동 1014 ","Lat":37.54333654836272,"Lng":126.72857123335615},
{"name":"계양역","line":"인천1호선","area":"수도권","address":"인천광역시 계양구 귤현동 451-264 ","Lat":37.57151479221626,"Lng":126.73643574629207},
{"name":"국제업무지구역","line":"인천1호선","area":"수도권","address":"인천광역시 연수구 송도동 78 일원","Lat":37.400496342566626,"Lng":126.63013975403584},
{"name":"귤현역","line":"인천1호선","area":"수도권","address":"인천광역시 계양구 귤현동 334-1 ","Lat":37.565805824303304,"Lng":126.74267843182892},
{"name":"동막역","line":"인천1호선","area":"수도권","address":"인천광역시 연수구 동춘동 927-1 ","Lat":37.39819850556141,"Lng":126.67362902540238},
{"name":"동수역","line":"인천1호선","area":"수도권","address":"인천광역시 부평구 부평동 686 ","Lat":37.48547107615385,"Lng":126.71842537982297},
{"name":"동춘역","line":"인천1호선","area":"수도권","address":"인천광역시 연수구 동춘동 926-11 ","Lat":37.40475012784993,"Lng":126.68097956685568},
{"name":"문학경기장역","line":"인천1호선","area":"수도권","address":"인천광역시 연수구 선학동 117-1 ","Lat":37.43501938562444,"Lng":126.69836996881608},
{"name":"박촌역","line":"인천1호선","area":"수도권","address":"인천광역시 계양구 박촌동 101-8 ","Lat":37.55360384281661,"Lng":126.74502223751574},
{"name":"부평역","line":"인천1호선","area":"수도권","address":"인천광역시 부평구 부평동 738-21 ","Lat":37.48952962310865,"Lng":126.72462057209202},
{"name":"부평구청역","line":"인천1호선","area":"수도권","address":"인천광역시 부평구 청천동 112 ","Lat":37.508498180829136,"Lng":126.72062230666623},
{"name":"부평삼거리역","line":"인천1호선","area":"수도권","address":"인천광역시 부평구 십정동 592 ","Lat":37.478356841418844,"Lng":126.71049689577124},
{"name":"부평시장역","line":"인천1호선","area":"수도권","address":"인천광역시 부평구 부평동 224-1 ","Lat":37.49859580722249,"Lng":126.72228389839802},
{"name":"선학역","line":"인천1호선","area":"수도권","address":"인천광역시 연수구 선학동 241-2 ","Lat":37.42702453152351,"Lng":126.69894889216101},
{"name":"센트럴파크역","line":"인천1호선","area":"수도권","address":"인천광역시 연수구 송도동 78 일원","Lat":37.39288478767659,"Lng":126.63500993832159},
{"name":"신연수역","line":"인천1호선","area":"수도권","address":"인천광역시 연수구 선학동 384 ","Lat":37.41812226759352,"Lng":126.69404174811164},
{"name":"예술회관역","line":"인천1호선","area":"수도권","address":"인천광역시 남동구 구월동 1408 ","Lat":37.44937518865241,"Lng":126.70103732653155},
{"name":"원인재역","line":"인천1호선","area":"수도권","address":"인천광역시 연수구 연수동 647 ","Lat":37.41240449303052,"Lng":126.68787162225921},
{"name":"인천대입구역","line":"인천1호선","area":"수도권","address":"인천광역시 연수구 송도동 78-1 ","Lat":37.38626814848309,"Lng":126.63944335396667},
{"name":"인천시청역","line":"인천1호선","area":"수도권","address":"인천광역시 남동구 간석동 927 ","Lat":37.45767802668577,"Lng":126.70225021337114},
{"name":"인천터미널역","line":"인천1호선","area":"수도권","address":"인천광역시 남구 관교동 14 ","Lat":37.441917779802175,"Lng":126.6996857613885},
{"name":"임학역","line":"인천1호선","area":"수도권","address":"인천광역시 계양구 임학동 93 ","Lat":37.5451479064284,"Lng":126.73869104537606},
{"name":"작전역","line":"인천1호선","area":"수도권","address":"인천광역시 계양구 작전동 878 ","Lat":37.53035100736951,"Lng":126.72255753455508},
{"name":"지식정보단지역","line":"인천1호선","area":"수도권","address":"인천광역시 연수구 송도동 48 ","Lat":37.37807451401319,"Lng":126.64545118726879},
{"name":"캠퍼스타운역","line":"인천1호선","area":"수도권","address":"인천광역시 연수구 송도동 3-47 일원","Lat":37.388265475825875,"Lng":126.66210495497782},
{"name":"테크노파크역","line":"인천1호선","area":"수도권","address":"인천광역시 연수구 송도동 7-51 일원","Lat":37.38237156793182,"Lng":126.65643962358885},
{"name":"구리역","line":"중앙선","area":"수도권","address":"경기도 구리시 인창동 244-2 ","Lat":37.60346941846384,"Lng":127.14378237448652},
{"name":"국수역","line":"중앙선","area":"수도권","address":"경기도 양평군 양서면 국수리 258-25 ","Lat":37.51625371030469,"Lng":127.39955198967017},
{"name":"덕소역","line":"중앙선","area":"수도권","address":"경기도 남양주시 와부읍 덕소리 590-17 ","Lat":37.58695620226315,"Lng":127.20888513295199},
{"name":"도농역","line":"중앙선","area":"수도권","address":"경기도 남양주시 도농동 56-1 ","Lat":37.608820032180496,"Lng":127.16115207197822},
{"name":"도심역","line":"중앙선","area":"수도권","address":"경기도 남양주시 와부읍 도곡리 1024-2 ","Lat":37.5796871400255,"Lng":127.22284241159247},
{"name":"망우역","line":"중앙선","area":"수도권","address":"서울특별시 중랑구 상봉동 172 ","Lat":37.599355501210425,"Lng":127.0923700972605},
{"name":"신원역","line":"중앙선","area":"수도권","address":"경기도 양평군 양서면 신원리 480-29 ","Lat":37.52598171766185,"Lng":127.37279636796225},
{"name":"아신역","line":"중앙선","area":"수도권","address":"경기도 양평군 옥천면 아신리 산112-2 112-2","Lat":37.51400751035307,"Lng":127.44329070286364},
{"name":"양수역","line":"중앙선","area":"수도권","address":"경기도 양평군 양서면 용담리 255-2 ","Lat":37.54606055191183,"Lng":127.3289910815745},
{"name":"양원역","line":"중앙선","area":"수도권","address":"서울특별시 중랑구 망우동 269-5 ","Lat":37.60670172925512,"Lng":127.10811441537284},
{"name":"양정역","line":"중앙선","area":"수도권","address":"경기도 남양주시 이패동 387 ","Lat":37.60433146858669,"Lng":127.19464653909773},
{"name":"양평역","line":"중앙선","area":"수도권","address":"경기도 양평군 양평읍 양근리 130-37 ","Lat":37.492726311709454,"Lng":127.49190642880897},
{"name":"오빈역","line":"중앙선","area":"수도권","address":"경기도 양평군 양평읍 오빈리 238-41 ","Lat":37.50611975049942,"Lng":127.47410319263108},
{"name":"옥수역","line":"중앙선","area":"수도권","address":"서울특별시 성동구 옥수동 168-1 ","Lat":37.540459252892134,"Lng":127.01858078196828},
{"name":"왕십리역","line":"중앙선","area":"수도권","address":"서울특별시 성동구 행당동 168-151 ","Lat":37.5615728892264,"Lng":127.03857639340823},
{"name":"용문역","line":"중앙선","area":"수도권","address":"경기도 양평군 용문면  다문2리 736-13","Lat":37.48214587353678,"Lng":127.59429692057239},
{"name":"용산역","line":"중앙선","area":"수도권","address":"서울특별시 용산구 한강로3가 40-999 용산역","Lat":37.53010988306904,"Lng":126.96511003981607},
{"name":"운길산역","line":"중앙선","area":"수도권","address":"경기도 남양주시 조안면 진중리 229-1 ","Lat":37.55471948622578,"Lng":127.3101369459385},
{"name":"원덕역","line":"중앙선","area":"수도권","address":"경기도 양평군 양평읍 원덕리 306-4 ","Lat":37.46864043748465,"Lng":127.54750962627458},
{"name":"응봉역","line":"중앙선","area":"수도권","address":"서울특별시 성동구 응봉동 246 ","Lat":37.55001539399975,"Lng":127.03451468065035},
{"name":"이촌역","line":"중앙선","area":"수도권","address":"서울특별시 용산구 이촌동 17-69 ","Lat":37.52246159355271,"Lng":126.9735644874819},
{"name":"중랑역","line":"중앙선","area":"수도권","address":"서울특별시 중랑구 중화동 73-7 ","Lat":37.595013306710115,"Lng":127.07619547529609},
{"name":"청량리역","line":"중앙선","area":"수도권","address":"서울특별시 동대문구 전농동 588-1 ","Lat":37.58031102981864,"Lng":127.04815177499776},
{"name":"팔당역","line":"중앙선","area":"수도권","address":"경기도 남양주시 와부읍 팔당리 360 ","Lat":37.5473858012975,"Lng":127.24394379729839},
{"name":"한남역","line":"중앙선","area":"수도권","address":"서울특별시 용산구 한남동 399-7 ","Lat":37.52943184866266,"Lng":127.00902897699599},
{"name":"회기역","line":"중앙선","area":"수도권","address":"서울특별시 동대문구 휘경동 317-101 ","Lat":37.58977930982982,"Lng":127.05806371320188},
{"name":"검암역","line":"공항철도","area":"수도권","address":"인천광역시 서구 검암동 414-204 ","Lat":37.56931315031736,"Lng":126.67365973901269},
{"name":"계양역","line":"공항철도","area":"수도권","address":"인천광역시 계양구 귤현동 451-264 ","Lat":37.57182084216516,"Lng":126.73640794054191},
{"name":"공항화물청사역","line":"공항철도","area":"수도권","address":"인천광역시 중구 운서동 2844-7 인천공항부지 내","Lat":37.45915091044999,"Lng":126.47739784868196},
{"name":"김포공항역","line":"공항철도","area":"수도권","address":"서울특별시 강서구 방화동 886 ","Lat":37.561863511861475,"Lng":126.80206579552075},
{"name":"운서역","line":"공항철도","area":"수도권","address":"인천광역시 중구 운서동 1427-27 ","Lat":37.492843536417226,"Lng":126.49388003459049},
{"name":"인천국제공항역","line":"공항철도","area":"수도권","address":"인천광역시 중구 운서동 2851 인천공항 교통센터 내","Lat":37.44754708488273,"Lng":126.45249937370741},
{"name":"가좌역","line":"경의선","area":"수도권","address":"서울특별시 서대문구 남가좌동 296-12 ","Lat":37.56868366027161,"Lng":126.91488300230054},
{"name":"곡산역","line":"경의선","area":"수도권","address":"경기도 고양시 일산동구 백석동 1185-1 ","Lat":37.64596172833411,"Lng":126.80174905734103},
{"name":"금릉역","line":"경의선","area":"수도권","address":"경기도 파주시 금촌동 605-1 ","Lat":37.751341631956684,"Lng":126.76571601897774},
{"name":"금촌역","line":"경의선","area":"수도권","address":"경기도 파주시 금촌동 329-355 ","Lat":37.766183273032915,"Lng":126.77457215267441},
{"name":"능곡역","line":"경의선","area":"수도권","address":"경기도 고양시 덕양구 토당동 454-3 ","Lat":37.61881739855165,"Lng":126.82088581338972},
{"name":"대곡역","line":"경의선","area":"수도권","address":"경기도 고양시 덕양구 대장동 420-1 ","Lat":37.63235481016761,"Lng":126.80961468317273},
{"name":"디지털미디어시티역","line":"경의선","area":"수도권","address":"서울특별시 은평구 수색동 37-7 ","Lat":37.57757933163298,"Lng":126.90052333803148},
{"name":"문산역","line":"경의선","area":"수도권","address":"경기도 파주시 문산읍 문산리 17-14 ","Lat":37.85449692949137,"Lng":126.78751054224881},
{"name":"백마역","line":"경의선","area":"수도권","address":"경기도 고양시 일산동구 백석동 92 ","Lat":37.658420488700735,"Lng":126.79444305326697},
{"name":"서울역역","line":"경의선","area":"수도권","address":"서울특별시 중구 봉래동2가 122-23 ","Lat":37.556030021559984,"Lng":126.96993579065582},
{"name":"수색역","line":"경의선","area":"수도권","address":"서울특별시 은평구 수색동 37-7 ","Lat":37.57757933163298,"Lng":126.90052333803148},
{"name":"신촌역","line":"경의선","area":"수도권","address":"서울특별시 서대문구 신촌동 74-12 ","Lat":37.55984119030313,"Lng":126.94235666543973},
{"name":"운정역","line":"경의선","area":"수도권","address":"경기도 파주시 야당동 299-4 ","Lat":37.72551575898417,"Lng":126.76713118234989},
{"name":"월롱역","line":"경의선","area":"수도권","address":"경기도 파주시 월롱면 위전리 168-3 ","Lat":37.7962734972254,"Lng":126.7926288387216},
{"name":"일산역","line":"경의선","area":"수도권","address":"경기도 고양시 일산서구 일산동 655-691 ","Lat":37.68207307202188,"Lng":126.77008316019248},
{"name":"탄현역","line":"경의선","area":"수도권","address":"경기도 고양시 일산서구 덕이동 238-12 ","Lat":37.69395470611074,"Lng":126.7612130054002},
{"name":"파주역","line":"경의선","area":"수도권","address":"경기도 파주시 파주읍 봉암리 487-4 ","Lat":37.81546305594378,"Lng":126.79247571026269},
{"name":"풍산역","line":"경의선","area":"수도권","address":"경기도 고양시 일산동구 풍동 1042 ","Lat":37.67224970823809,"Lng":126.7863981389581},
{"name":"행신역","line":"경의선","area":"수도권","address":"경기도 고양시 덕양구 행신동 812 ","Lat":37.61219994879359,"Lng":126.83410611550374},
{"name":"화전역","line":"경의선","area":"수도권","address":"경기도 고양시 덕양구 화전동 183-10 ","Lat":37.60333891239814,"Lng":126.86798156902034},
{"name":"괴정역","line":"1호선","area":"부산","address":"부산광역시 사하구 괴정동 934-3 ","Lat":35.10016228628335,"Lng":128.99318472815065},
{"name":"교대역","line":"1호선","area":"부산","address":"부산광역시 연제구 거제동 72-25 ","Lat":35.195552416275135,"Lng":129.08000839657896},
{"name":"구서역","line":"1호선","area":"부산","address":"부산광역시 금정구 구서동 475 ","Lat":35.24730748817797,"Lng":129.091298495758},
{"name":"남산역","line":"1호선","area":"부산","address":"부산광역시 금정구 남산동 136-1 ","Lat":35.265189281420135,"Lng":129.0924617167697},
{"name":"남포역","line":"1호선","area":"부산","address":"부산광역시 중구 남포동1가 11 ","Lat":35.09788612662711,"Lng":129.03463749669052},
{"name":"노포역","line":"1호선","area":"부산","address":"부산광역시 금정구 노포동 133 ","Lat":35.283610019223445,"Lng":129.0948200294702},
{"name":"당리역","line":"1호선","area":"부산","address":"부산광역시 사하구 당리동 323 ","Lat":35.10362058785234,"Lng":128.97359284544655},
{"name":"대티역","line":"1호선","area":"부산","address":"부산광역시 사하구 괴정동 317-1 ","Lat":35.10314501597356,"Lng":128.99986791651213},
{"name":"동대신역","line":"1호선","area":"부산","address":"부산광역시 서구 동대신동2가 428-9 ","Lat":35.11007979322988,"Lng":129.01789882493716},
{"name":"동래역","line":"1호선","area":"부산","address":"부산광역시 동래구 온천동 527 ","Lat":35.20561656428615,"Lng":129.0784725143051},
{"name":"두실역","line":"1호선","area":"부산","address":"부산광역시 금정구 구서동 262 ","Lat":35.257077419726855,"Lng":129.09140763918725},
{"name":"명륜역","line":"1호선","area":"부산","address":"부산광역시 동래구 온천동 489-4 ","Lat":35.212555610102854,"Lng":129.07966271877518},
{"name":"범내골역","line":"1호선","area":"부산","address":"부산광역시 부산진구 범천동 948-4 ","Lat":35.147268103007136,"Lng":129.0592641020365},
{"name":"범어사역","line":"1호선","area":"부산","address":"부산광역시 금정구 청룡동 47 ","Lat":35.27325489839659,"Lng":129.0926470871214},
{"name":"범일역","line":"1호선","area":"부산","address":"부산광역시 동구 범일동 949 ","Lat":35.14139924757021,"Lng":129.0593525634375},
{"name":"부산대역","line":"1호선","area":"부산","address":"부산광역시 금정구 장전동 427 ","Lat":35.22979316089941,"Lng":129.08936084426378},
{"name":"부산역역","line":"1호선","area":"부산","address":"부산광역시 동구 초량동 1206-1 ","Lat":35.11451292090866,"Lng":129.03932371688822},
{"name":"부산진역","line":"1호선","area":"부산","address":"부산광역시 동구 초량동 1170 ","Lat":35.12774423856813,"Lng":129.0478306107239},
{"name":"부전역","line":"1호선","area":"부산","address":"부산광역시 부산진구 부전동 573-1 ","Lat":35.16178953221205,"Lng":129.06235036120154},
{"name":"사하역","line":"1호선","area":"부산","address":"부산광역시 사하구 괴정동 661 ","Lat":35.099792465661906,"Lng":128.9832760094179},
{"name":"서대신역","line":"1호선","area":"부산","address":"부산광역시 서구 서대신동2가 338 ","Lat":35.110894649739116,"Lng":129.012095087749},
{"name":"서면역","line":"1호선","area":"부산","address":"부산광역시 부산진구 부전동 573-1 ","Lat":35.15745500131334,"Lng":129.05913290130607},
{"name":"시청역","line":"1호선","area":"부산","address":"부산광역시 연제구 연산동 1328-9 ","Lat":35.17999609938556,"Lng":129.07679410870648},
{"name":"신평역","line":"1호선","area":"부산","address":"부산광역시 사하구 신평동 646 ","Lat":35.09520574724799,"Lng":128.9606386960052},
{"name":"양정역","line":"1호선","area":"부산","address":"부산광역시 부산진구 양정동 408 ","Lat":35.17314894404715,"Lng":129.07133551268805},
{"name":"연산역","line":"1호선","area":"부산","address":"부산광역시 연제구 연산동 1515-1 ","Lat":35.186191237279175,"Lng":129.081553259774},
{"name":"온천장역","line":"1호선","area":"부산","address":"부산광역시 동래구 온천동 1750-1 ","Lat":35.22030122895969,"Lng":129.08639989558793},
{"name":"자갈치역","line":"1호선","area":"부산","address":"부산광역시 중구 남포동6가 117-1 ","Lat":35.09712386472262,"Lng":129.0257001207305},
{"name":"장전역","line":"1호선","area":"부산","address":"부산광역시 금정구 장전동 242 ","Lat":35.238042941971166,"Lng":129.08811993950044},
{"name":"좌천역","line":"1호선","area":"부산","address":"부산광역시 동구 좌천동 236 ","Lat":35.13451841831547,"Lng":129.054556011392},
{"name":"중앙역","line":"1호선","area":"부산","address":"부산광역시 중구 중앙동4가 26-3 ","Lat":35.10395577782813,"Lng":129.03637056236204},
{"name":"초량역","line":"1호선","area":"부산","address":"부산광역시 동구 초량동 1170 ","Lat":35.121017451297696,"Lng":129.04288422670174},
{"name":"토성역","line":"1호선","area":"부산","address":"부산광역시 서구 토성동3가 11-3 ","Lat":35.100806355731734,"Lng":129.01980152843464},
{"name":"하단역","line":"1호선","area":"부산","address":"부산광역시 사하구 하단동 491 ","Lat":35.10623563470264,"Lng":128.96672447514567},
{"name":"가야역","line":"2호선","area":"부산","address":"부산광역시 부산진구 가야동 15-13 ","Lat":35.15592652600186,"Lng":129.04312162247967},
{"name":"감전역","line":"2호선","area":"부산","address":"부산광역시 사상구 감전동 174 ","Lat":35.155314553269534,"Lng":128.99155065794918},
{"name":"개금역","line":"2호선","area":"부산","address":"부산광역시 부산진구 개금동 487-2 ","Lat":35.15332603361893,"Lng":129.0203915295342},
{"name":"경성대,부경대역","line":"2호선","area":"부산","address":"부산광역시 남구 대연동 77 ","Lat":35.13760669752905,"Lng":129.10050735018658},
{"name":"광안역","line":"2호선","area":"부산","address":"부산광역시 수영구 광안동 205 ","Lat":35.157934666400116,"Lng":129.11314016953082},
{"name":"구남역","line":"2호선","area":"부산","address":"부산광역시 북구 구포동 897-21 ","Lat":35.196849996792196,"Lng":128.99495490420588},
{"name":"구명역","line":"2호선","area":"부산","address":"부산광역시 북구 구포동 969-1 ","Lat":35.20280652438162,"Lng":128.99953025817405},
{"name":"금곡역","line":"2호선","area":"부산","address":"부산광역시 북구 금곡동 581-1 ","Lat":35.26722929011244,"Lng":129.01674202333788},
{"name":"금련산역","line":"2호선","area":"부산","address":"부산광역시 수영구 남천동 78 ","Lat":35.14987799863419,"Lng":129.11098899789502},
{"name":"남양산역","line":"2호선","area":"부산","address":"경상남도 양산시 물금읍 범어리 1265 ","Lat":35.32539033412888,"Lng":129.0194504683721},
{"name":"남천역","line":"2호선","area":"부산","address":"부산광역시 수영구 남천동 78 ","Lat":35.1419304633355,"Lng":129.1077423894976},
{"name":"냉정역","line":"2호선","area":"부산","address":"부산광역시 사상구 주례동 62-2 ","Lat":35.15125870926945,"Lng":129.01217832663377},
{"name":"대연역","line":"2호선","area":"부산","address":"부산광역시 남구 대연동 1756-27 ","Lat":35.135161115574896,"Lng":129.0918607865426},
{"name":"덕천역","line":"2호선","area":"부산","address":"부산광역시 북구 덕천동 327 ","Lat":35.21089118298335,"Lng":129.0050660874537},
{"name":"덕포역","line":"2호선","area":"부산","address":"부산광역시 사상구 덕포동 430 ","Lat":35.173315945467415,"Lng":128.9837665260195},
{"name":"동백역","line":"2호선","area":"부산","address":"부산광역시 해운대구 우동 991-3 ","Lat":35.16146764908971,"Lng":129.1479171912368},
{"name":"동원역","line":"2호선","area":"부산","address":"부산광역시 북구 금곡동 846-1 ","Lat":35.25868474222721,"Lng":129.01238221453212},
{"name":"동의대역","line":"2호선","area":"부산","address":"부산광역시 부산진구 가야동 236-4 ","Lat":35.153993098917915,"Lng":129.03207765738364},
{"name":"모덕역","line":"2호선","area":"부산","address":"부산광역시 사상구 덕포동 247-7 ","Lat":35.18039503503141,"Lng":128.98559759693188},
{"name":"모라역","line":"2호선","area":"부산","address":"부산광역시 사상구 모라동 987-8 ","Lat":35.189690531973426,"Lng":128.98865269630838},
{"name":"못골역","line":"2호선","area":"부산","address":"부산광역시 남구 대연동 1756-27 ","Lat":35.13473209247893,"Lng":129.0844375036495},
{"name":"문전역","line":"2호선","area":"부산","address":"부산광역시 남구 문현동 728-3 ","Lat":35.145985327852635,"Lng":129.06676481500227},
{"name":"문현역","line":"2호선","area":"부산","address":"부산광역시 남구 문현동 651-1 ","Lat":35.139129520857566,"Lng":129.06735559022454},
{"name":"민락역","line":"2호선","area":"부산","address":"부산광역시 수영구 민락동 345-1 ","Lat":35.16720968621826,"Lng":129.12194954555514},
{"name":"부산대 양산캠퍼스역","line":"2호선","area":"부산","address":"경상남도 양산시 물금읍 범어리 2635 ","Lat":35.31684624914374,"Lng":129.01398737261295},
{"name":"부암역","line":"2호선","area":"부산","address":"부산광역시 부산진구 부전동 368-12 ","Lat":35.1574767958464,"Lng":129.05042937610114},
{"name":"사상역","line":"2호선","area":"부산","address":"부산광역시 사상구 괘법동 572-1 ","Lat":35.162537519257526,"Lng":128.98459149174118},
{"name":"서면역","line":"2호선","area":"부산","address":"부산광역시 부산진구 부전동 573-1 ","Lat":35.157675729331444,"Lng":129.0586308784864},
{"name":"센텀시티역","line":"2호선","area":"부산","address":"부산광역시 해운대구 우동 1524 ","Lat":35.16892226471033,"Lng":129.13163307786834},
{"name":"수영역","line":"2호선","area":"부산","address":"부산광역시 수영구 광안동 1091-1 ","Lat":35.16549142017953,"Lng":129.1147580663749},
{"name":"수정역","line":"2호선","area":"부산","address":"부산광역시 북구 화명동 941-1 ","Lat":35.223341109955705,"Lng":129.00918527432566},
{"name":"시립미술관역","line":"2호선","area":"부산","address":"부산광역시 해운대구 우동 1086-3 ","Lat":35.1691916816775,"Lng":129.13846467938035},
{"name":"양산역","line":"2호선","area":"부산","address":"경상남도 양산시 중부동 475-1 ","Lat":35.338797601112866,"Lng":129.02643926687222},
{"name":"율리역","line":"2호선","area":"부산","address":"부산광역시 북구 금곡동 1241 ","Lat":35.24614227838928,"Lng":129.0128853293818},
{"name":"장산역","line":"2호선","area":"부산","address":"부산광역시 해운대구 좌동 1491 ","Lat":35.16991546024192,"Lng":129.17680765618195},
{"name":"전포역","line":"2호선","area":"부산","address":"부산광역시 부산진구 전포동 870-1 ","Lat":35.153091530530695,"Lng":129.06537603761},
{"name":"주례역","line":"2호선","area":"부산","address":"부산광역시 사상구 주례동 1162-16 ","Lat":35.150522478156745,"Lng":129.00316976252006},
{"name":"중동역","line":"2호선","area":"부산","address":"부산광역시 해운대구 중동 1783-1 ","Lat":35.166698565177704,"Lng":129.1683310007873},
{"name":"증산역","line":"2호선","area":"부산","address":"경상남도 양산시 물금읍 증산리 35-6 ","Lat":35.308314403482385,"Lng":129.010262996628},
{"name":"지게골역","line":"2호선","area":"부산","address":"부산광역시 남구 문현동 254-2 ","Lat":35.13561456888193,"Lng":129.0744310252287},
{"name":"해운대역","line":"2호선","area":"부산","address":"부산광역시 해운대구 우동 656 ","Lat":35.16360842655152,"Lng":129.15879209059563},
{"name":"호포역","line":"2호선","area":"부산","address":"경상남도 양산시 동면 가산리 산91-5 ","Lat":35.280932748265194,"Lng":129.0175181157273},
{"name":"화명역","line":"2호선","area":"부산","address":"부산광역시 북구 화명동 1458-9 ","Lat":35.235623642906276,"Lng":129.0138969450678},
{"name":"강서구청역","line":"3호선","area":"부산","address":"부산광역시 강서구 대저1동 2300-3 ","Lat":35.21125213097472,"Lng":128.98198405687845},
{"name":"거제역","line":"3호선","area":"부산","address":"부산광역시 연제구 거제동 1190-1 ","Lat":35.18858521554691,"Lng":129.0738770971202},
{"name":"구포역","line":"3호선","area":"부산","address":"부산광역시 북구 구포동 1157-1 ","Lat":35.20675337723058,"Lng":128.99640475166285},
{"name":"남산정역","line":"3호선","area":"부산","address":"부산광역시 북구 만덕동 706-6 ","Lat":35.21335535257404,"Lng":129.02399887126194},
{"name":"대저역","line":"3호선","area":"부산","address":"부산광역시 강서구 대저1동 1500-2 ","Lat":35.21337626943118,"Lng":128.96106430091947},
{"name":"덕천역","line":"3호선","area":"부산","address":"부산광역시 북구 덕천동 327 ","Lat":35.21022821284159,"Lng":129.0056619676634},
{"name":"만덕역","line":"3호선","area":"부산","address":"부산광역시 북구 만덕동 607-1 ","Lat":35.212997529378825,"Lng":129.03637254802584},
{"name":"망미역","line":"3호선","area":"부산","address":"부산광역시 수영구 망미동 603-2 ","Lat":35.171591764047214,"Lng":129.10811215093364},
{"name":"물만골역","line":"3호선","area":"부산","address":"부산광역시 연제구 연산동 1515-11 ","Lat":35.176489782359255,"Lng":129.08585981383595},
{"name":"미남역","line":"3호선","area":"부산","address":"부산광역시 동래구 온천동 1470 ","Lat":35.205447882471866,"Lng":129.06802618079124},
{"name":"배산역","line":"3호선","area":"부산","address":"부산광역시 연제구 연산동 1805-3 ","Lat":35.173527410551245,"Lng":129.09550288879782},
{"name":"사직역","line":"3호선","area":"부산","address":"부산광역시 동래구 사직동 161-1 ","Lat":35.19860423223892,"Lng":129.06520211778462},
{"name":"수영역","line":"3호선","area":"부산","address":"부산광역시 수영구 광안동 1091-1 ","Lat":35.167791586770754,"Lng":129.11458093313928},
{"name":"숙등역","line":"3호선","area":"부산","address":"부산광역시 북구 덕천동 462 ","Lat":35.21213850808955,"Lng":129.01329692052178},
{"name":"연산동역","line":"3호선","area":"부산","address":"부산광역시 연제구 연산동 1515-1 ","Lat":35.185818668831295,"Lng":129.0818886835005},
{"name":"종합운동장역","line":"3호선","area":"부산","address":"부산광역시 연제구 거제동 1191-2 ","Lat":35.191135525166395,"Lng":129.06783859068548},
{"name":"체육공원역","line":"3호선","area":"부산","address":"부산광역시 강서구 대저1동 2327-35 ","Lat":35.21252487332,"Lng":128.969478448348},
{"name":"고촌역","line":"4호선","area":"부산","address":"부산광역시 기장군 철마면 고촌리 518-2 ","Lat":35.23603617565311,"Lng":129.16044880155863},
{"name":"금사역","line":"4호선","area":"부산","address":"부산광역시 금정구 금사동 154-1 ","Lat":35.21581209968255,"Lng":129.115138976722},
{"name":"낙민역","line":"4호선","area":"부산","address":"부산광역시 동래구 낙민동 205-4 ","Lat":35.200213885416,"Lng":129.0909089347959},
{"name":"동래역","line":"4호선","area":"부산","address":"부산광역시 동래구 온천동 1486 ","Lat":35.20482617219256,"Lng":129.07714419314684},
{"name":"동부산대학역","line":"4호선","area":"부산","address":"부산광역시 해운대구 반송동 385-56 ","Lat":35.23243966660078,"Lng":129.15386098776932},
{"name":"명장역","line":"4호선","area":"부산","address":"부산광역시 동래구 명장동 184 ","Lat":35.20519970478858,"Lng":129.1017162606741},
{"name":"미남역","line":"4호선","area":"부산","address":"부산광역시 동래구 온천동 1470 ","Lat":35.207123475620634,"Lng":129.06915737977408},
{"name":"반여농산물시장역","line":"4호선","area":"부산","address":"부산광역시 해운대구 석대동 507-1 ","Lat":35.21774916888543,"Lng":129.12399650406337},
{"name":"서동역","line":"4호선","area":"부산","address":"부산광역시 금정구 서동 241 ","Lat":35.213187062403215,"Lng":129.10751362194225},
{"name":"석대역","line":"4호선","area":"부산","address":"부산광역시 해운대구 석대동 574-14 ","Lat":35.21816844575128,"Lng":129.13699621256353},
{"name":"수안역","line":"4호선","area":"부산","address":"부산광역시 동래구 수안동 204-2 ","Lat":35.20179141762296,"Lng":129.08387979390247},
{"name":"안평역","line":"4호선","area":"부산","address":"부산광역시 기장군 철마면 안평리 543-23 ","Lat":35.23739595403482,"Lng":129.171795191713},
{"name":"영산대역","line":"4호선","area":"부산","address":"부산광역시 해운대구 반송동 698-12 ","Lat":35.225716216641665,"Lng":129.14619710496157},
{"name":"충렬사역","line":"4호선","area":"부산","address":"부산광역시 동래구 안락동 473 ","Lat":35.199864770700685,"Lng":129.0976139274517},
{"name":"각산역","line":"1호선","area":"대구","address":"대구광역시 동구 신서동 627-15 ","Lat":35.86804660569517,"Lng":128.72439997301825},
{"name":"교대역","line":"1호선","area":"대구","address":"대구광역시 남구 대명동 1982-11 ","Lat":35.851123401185504,"Lng":128.59061899983027},
{"name":"대곡역","line":"1호선","area":"대구","address":"대구광역시 달서구 대곡동 946 ","Lat":35.80951651961304,"Lng":128.51257651826722},
{"name":"대구역역","line":"1호선","area":"대구","address":"대구광역시 북구 칠성동 302-94 ","Lat":35.87634645013813,"Lng":128.59708586661827},
{"name":"대명역","line":"1호선","area":"대구","address":"대구광역시 남구 대명동 1291 ","Lat":35.83932005464518,"Lng":128.56548125361283},
{"name":"동대구역역","line":"1호선","area":"대구","address":"대구광역시 동구 신천동 329-5 ","Lat":35.87744393896833,"Lng":128.62749409563617},
{"name":"동촌역","line":"1호선","area":"대구","address":"대구광역시 동구 검사동 1104 ","Lat":35.88617415099452,"Lng":128.65014681218685},
{"name":"명덕역","line":"1호선","area":"대구","address":"대구광역시 중구 남산동 2321 ","Lat":35.85817768048479,"Lng":128.59124718994047},
{"name":"반야월역","line":"1호선","area":"대구","address":"대구광역시 동구 동호동 207-11 ","Lat":35.865993428756816,"Lng":128.7135740006971},
{"name":"반월당역","line":"1호선","area":"대구","address":"대구광역시 중구 덕산동 88 ","Lat":35.86469295960372,"Lng":128.59333310737787},
{"name":"방촌역","line":"1호선","area":"대구","address":"대구광역시 동구 방촌동 857-19 ","Lat":35.879718520630064,"Lng":128.67018391067444},
{"name":"상인역","line":"1호선","area":"대구","address":"대구광역시 달서구 상인동 204-4 ","Lat":35.8189869016834,"Lng":128.5378694019664},
{"name":"성당못역","line":"1호선","area":"대구","address":"대구광역시 남구 대명동 1288 ","Lat":35.837492104765886,"Lng":128.55740990934606},
{"name":"송현역","line":"1호선","area":"대구","address":"대구광역시 달서구 송현동 950 ","Lat":35.83110080198743,"Lng":128.5517534853239},
{"name":"신기역","line":"1호선","area":"대구","address":"대구광역시 동구 신기동 227 ","Lat":35.866766601389905,"Lng":128.701688415803},
{"name":"신천역","line":"1호선","area":"대구","address":"대구광역시 동구 신천동 741 ","Lat":35.87464718953004,"Lng":128.61759373765094},
{"name":"아양교역","line":"1호선","area":"대구","address":"대구광역시 동구 신암동 1575 ","Lat":35.88717645674307,"Lng":128.63975465386187},
{"name":"안심역","line":"1호선","area":"대구","address":"대구광역시 동구 괴전동 536-1 ","Lat":35.871234536020374,"Lng":128.73374204758483},
{"name":"안지랑역","line":"1호선","area":"대구","address":"대구광역시 남구 대명동 1291 ","Lat":35.83926205250391,"Lng":128.5738935765127},
{"name":"영대병원역","line":"1호선","area":"대구","address":"대구광역시 남구 대명동 224 ","Lat":35.8442850014428,"Lng":128.5882434607195},
{"name":"용계역","line":"1호선","area":"대구","address":"대구광역시 동구 용계동 405-4 ","Lat":35.87624632484362,"Lng":128.6817495646924},
{"name":"월배역","line":"1호선","area":"대구","address":"대구광역시 달서구 진천동 49-4 ","Lat":35.81629735182182,"Lng":128.5305807065222},
{"name":"월촌역","line":"1호선","area":"대구","address":"대구광역시 달서구 송현동 2041 ","Lat":35.82371164266463,"Lng":128.54546028799578},
{"name":"율하역","line":"1호선","area":"대구","address":"대구광역시 동구 율하동 840-27 ","Lat":35.869593008600994,"Lng":128.69303174373573},
{"name":"중앙로역","line":"1호선","area":"대구","address":"대구광역시 중구 남일동 143-1 ","Lat":35.87093588061337,"Lng":128.5939888140394},
{"name":"진천역","line":"1호선","area":"대구","address":"대구광역시 달서구 진천동 608-4 ","Lat":35.81384478391815,"Lng":128.5225858434727},
{"name":"칠성시장역","line":"1호선","area":"대구","address":"대구광역시 북구 칠성동1가 278-1 ","Lat":35.876161752334916,"Lng":128.60515778832453},
{"name":"큰고개역","line":"1호선","area":"대구","address":"대구광역시 동구 신암동 369 ","Lat":35.884386519121314,"Lng":128.632178591126},
{"name":"해안역","line":"1호선","area":"대구","address":"대구광역시 동구 방촌동 1139-1 ","Lat":35.883543299813674,"Lng":128.6598606210385},
{"name":"현충로역","line":"1호선","area":"대구","address":"대구광역시 남구 대명동 1291 ","Lat":35.84092950285096,"Lng":128.58137760686236},
{"name":"감삼역","line":"2호선","area":"대구","address":"대구광역시 달서구 감삼동 305 ","Lat":35.85435384608507,"Lng":128.5480952919519},
{"name":"강창역","line":"2호선","area":"대구","address":"대구광역시 달서구 호산동 102-2 ","Lat":35.853089592553815,"Lng":128.47926710199627},
{"name":"경대병원역","line":"2호선","area":"대구","address":"대구광역시 중구 삼덕동2가 327 ","Lat":35.86311052388742,"Lng":128.60338635713674},
{"name":"계명대역","line":"2호선","area":"대구","address":"대구광역시 달서구 신당동 1034-4 ","Lat":35.851505856363474,"Lng":128.49196720965352},
{"name":"고산역","line":"2호선","area":"대구","address":"대구광역시 수성구 시지동 250-1 ","Lat":35.84296739678651,"Lng":128.69314274723024},
{"name":"내당역","line":"2호선","area":"대구","address":"대구광역시 서구 내당동 1290 ","Lat":35.860171646367476,"Lng":128.56465531838472},
{"name":"다사역","line":"2호선","area":"대구","address":"대구광역시 달성군 다사읍 매곡리 689-1 ","Lat":35.86497910904291,"Lng":128.45828907306185},
{"name":"담티역","line":"2호선","area":"대구","address":"대구광역시 수성구 만촌동 889 ","Lat":35.85484172578903,"Lng":128.65393145396635},
{"name":"대공원역","line":"2호선","area":"대구","address":"대구광역시 수성구 연호동 154-5 ","Lat":35.84276328429949,"Lng":128.67999004890382},
{"name":"대구은행역","line":"2호선","area":"대구","address":"대구광역시 수성구 수성동4가 1085-32 ","Lat":35.85981231036789,"Lng":128.61391312931056},
{"name":"대실역","line":"2호선","area":"대구","address":"대구광역시 달성군 다사읍 죽곡리 242-2 ","Lat":35.8573706977446,"Lng":128.46560800150309},
{"name":"두류역","line":"2호선","area":"대구","address":"대구광역시 달서구 두류동 1290-1 ","Lat":35.85790713298561,"Lng":128.55742028462964},
{"name":"만촌역","line":"2호선","area":"대구","address":"대구광역시 수성구 만촌동 1320 ","Lat":35.85894696504493,"Lng":128.64483078063526},
{"name":"문양역","line":"2호선","area":"대구","address":"대구광역시 달성군 다사읍 문양리 400 ","Lat":35.864084629366694,"Lng":128.43716787665872},
{"name":"반고개역","line":"2호선","area":"대구","address":"대구광역시 달서구 두류동 866-39 ","Lat":35.862419670811775,"Lng":128.57336329967308},
{"name":"반월당역","line":"2호선","area":"대구","address":"대구광역시 중구 덕산동 88 ","Lat":35.86560479701273,"Lng":128.59302987496358},
{"name":"범어역","line":"2호선","area":"대구","address":"대구광역시 수성구 범어동 835 ","Lat":35.859060294908296,"Lng":128.62686168482696},
{"name":"사월역","line":"2호선","area":"대구","address":"대구광역시 수성구 신매동 8-2 ","Lat":35.8370038001454,"Lng":128.7156272145678},
{"name":"서문시장역","line":"2호선","area":"대구","address":"대구광역시 중구 동산동 640 ","Lat":35.865077563267434,"Lng":128.58291631942677},
{"name":"성서공단역","line":"2호선","area":"대구","address":"대구광역시 달서구 이곡동 653-4 ","Lat":35.85184200878054,"Lng":128.50647253434408},
{"name":"수성구청역","line":"2호선","area":"대구","address":"대구광역시 수성구 범어동 835 ","Lat":35.85887893094976,"Lng":128.6356293381378},
{"name":"신매역","line":"2호선","area":"대구","address":"대구광역시 수성구 매호동 815-5 ","Lat":35.840906934696484,"Lng":128.70490276475078},
{"name":"연호역","line":"2호선","area":"대구","address":"대구광역시 수성구 연호동 552 ","Lat":35.846786821138274,"Lng":128.67134529962513},
{"name":"용산역","line":"2호선","area":"대구","address":"대구광역시 달서구 용산동 215-9 ","Lat":35.849071273511754,"Lng":128.5281978832835},
{"name":"이곡역","line":"2호선","area":"대구","address":"대구광역시 달서구 이곡동 707-2 ","Lat":35.850629885624734,"Lng":128.51594158297348},
{"name":"죽전역","line":"2호선","area":"대구","address":"대구광역시 달서구 죽전동 338 ","Lat":35.85077253830065,"Lng":128.53882629394897},
{"name":"칠곡경대병원역","line":"3호선","area":"대구","address":"대구광역시 북구 동호동 209-1 ","Lat":35.95842855267308,"Lng":128.55992345233506},
{"name":"학정역","line":"3호선","area":"대구","address":"대구광역시 북구 학정동 752-3 ","Lat":35.95160895727834,"Lng":128.55921010364466},
{"name":"팔거역","line":"3호선","area":"대구","address":"대구광역시 북구 동천동 960 ","Lat":35.944159070520264,"Lng":128.55835943122344},
{"name":"동천역","line":"3호선","area":"대구","address":"대구광역시 북구 동천동 574 ","Lat":35.937740550535665,"Lng":128.55667387215118},
{"name":"칠곡운암역","line":"3호선","area":"대구","address":"대구광역시 북구 구암동 761-3 ","Lat":35.931513167295236,"Lng":128.55457988867636},
{"name":"구암역","line":"3호선","area":"대구","address":"대구광역시 북구 구암동 762-13 ","Lat":35.925790988178214,"Lng":128.55041753244535},
{"name":"태전역","line":"3호선","area":"대구","address":"대구광역시 북구 태전동 887 ","Lat":35.91973847246903,"Lng":128.54750561171122},
{"name":"매천역","line":"3호선","area":"대구","address":"대구광역시 북구 매천동 669 ","Lat":35.912762981683336,"Lng":128.54339119801244},
{"name":"매천시장역","line":"3호선","area":"대구","address":"대구광역시 북구 매천동 618-99 ","Lat":35.90449607247932,"Lng":128.5457717987412},
{"name":"팔달역","line":"3호선","area":"대구","address":"대구광역시 북구 팔달동 76-3 ","Lat":35.897875839884065,"Lng":128.54676752478287},
{"name":"공단역","line":"3호선","area":"대구","address":"대구광역시 서구 비산동 1705-2 ","Lat":35.8920127840084,"Lng":128.55362791566955},
{"name":"만평역","line":"3호선","area":"대구","address":"대구광역시 북구 노원동3가 252-3 ","Lat":35.88989627727348,"Lng":128.56103435927662},
{"name":"팔달시장역","line":"3호선","area":"대구","address":"대구광역시 북구 노원동3가 784-1 ","Lat":35.888890740227744,"Lng":128.5678502464094},
{"name":"원대역","line":"3호선","area":"대구","address":"대구광역시 서구 원대동3가 1317-2 ","Lat":35.88789568929858,"Lng":128.57427836950285},
{"name":"북구청역","line":"3호선","area":"대구","address":"대구광역시 서구 원대동2가 203-2 ","Lat":35.883922120915734,"Lng":128.5814930513319},
{"name":"달성공원역","line":"3호선","area":"대구","address":"대구광역시 중구 수창동 104-13 ","Lat":35.8758072868022,"Lng":128.58209806898623},
{"name":"서문시장역","line":"3호선","area":"대구","address":"대구광역시 중구 대신동 115-1 ","Lat":35.86977668311363,"Lng":128.58225317843846},
{"name":"신남역","line":"3호선","area":"대구","address":"대구광역시 중구 남산동 97-2 ","Lat":35.86430514347301,"Lng":128.58235700656442},
{"name":"남산역","line":"3호선","area":"대구","address":"대구광역시 중구 남산동 2121-3 ","Lat":35.856729117426745,"Lng":128.58336435452603},
{"name":"명덕역","line":"3호선","area":"대구","address":"대구광역시 남구 대명동 2321-1 ","Lat":35.85700298918329,"Lng":128.59002054420063},
{"name":"건들바위역","line":"3호선","area":"대구","address":"대구광역시 남구 이천동 160-8 ","Lat":35.85545009197805,"Lng":128.59963025122798},
{"name":"대봉교역","line":"3호선","area":"대구","address":"대구광역시 남구 이천동 214-684 ","Lat":35.85503763524473,"Lng":128.6063697186219},
{"name":"수성시장역","line":"3호선","area":"대구","address":"대구광역시 수성구 수성동2가 59-1 ","Lat":35.8543574003977,"Lng":128.61604098375085},
{"name":"수성구민운동장역","line":"3호선","area":"대구","address":"대구광역시 수성구 범어동 690 ","Lat":35.85258900822867,"Lng":128.62509459319833},
{"name":"어린이회관역","line":"3호선","area":"대구","address":"대구광역시 수성구 황금동 908 ","Lat":35.84523744579316,"Lng":128.6244721922801},
{"name":"황금역","line":"3호선","area":"대구","address":"대구광역시 수성구 두산동 968 ","Lat":35.839138028210904,"Lng":128.62398150480053},
{"name":"수성못역","line":"3호선","area":"대구","address":"대구광역시 수성구 지산동 1086 ","Lat":35.831390679118044,"Lng":128.6232012723354},
{"name":"지산역","line":"3호선","area":"대구","address":"대구광역시 수성구 지산동 1257-3 ","Lat":35.82519801304704,"Lng":128.6319181291804},
{"name":"범물역","line":"3호선","area":"대구","address":"대구광역시 수성구 범물동 1325 ","Lat":35.82087328547882,"Lng":128.640106402788},
{"name":"용지역","line":"3호선","area":"대구","address":"대구광역시 수성구 범물동 1287-2 ","Lat":35.81830612116648,"Lng":128.64652641234815},
{"name":"공항역","line":"1호선","area":"광주","address":"광주광역시 광산구 신촌동 682-29 ","Lat":35.144134578121616,"Lng":126.81183187035614},
{"name":"금남로4가역","line":"1호선","area":"광주","address":"광주광역시 동구 금남로4가 105 ","Lat":35.15083788176237,"Lng":126.91443672616444},
{"name":"금남로5가역","line":"1호선","area":"광주","address":"광주광역시 북구 북동 299 ","Lat":35.15376384607188,"Lng":126.9100187863757},
{"name":"김대중컨벤션센터역","line":"1호선","area":"광주","address":"광주광역시 서구 마륵동 170-40 ","Lat":35.1432671691395,"Lng":126.84144062644931},
{"name":"남광주역","line":"1호선","area":"광주","address":"광주광역시 동구 학동 994 ","Lat":35.1395011380035,"Lng":126.92283901237278},
{"name":"녹동역","line":"1호선","area":"광주","address":"광주광역시 동구 월남동 222-5 ","Lat":35.10687875461891,"Lng":126.93397356250082},
{"name":"농성역","line":"1호선","area":"광주","address":"광주광역시 서구 농성동 483-11 ","Lat":35.153346024135715,"Lng":126.88389244671646},
{"name":"도산역","line":"1호선","area":"광주","address":"광주광역시 광산구 도산동 1023-3 ","Lat":35.13203722919044,"Lng":126.78805512861396},
{"name":"돌고개역","line":"1호선","area":"광주","address":"광주광역시 서구 농성동 671-1 ","Lat":35.151920508782965,"Lng":126.89556731741652},
{"name":"문화전당역","line":"1호선","area":"광주","address":"광주광역시 동구 광산동 13 ","Lat":35.14647965942422,"Lng":126.91999264338156},
{"name":"상무역","line":"1호선","area":"광주","address":"광주광역시 서구 마륵동 162-3 ","Lat":35.14672361117863,"Lng":126.84850299930352},
{"name":"소태역","line":"1호선","area":"광주","address":"광주광역시 동구 소태동 664-1 ","Lat":35.12367518003141,"Lng":126.93230685380433},
{"name":"송정공원역","line":"1호선","area":"광주","address":"광주광역시 광산구 송정동 713 ","Lat":35.14360608374425,"Lng":126.7993514112438},
{"name":"송정리역","line":"1호선","area":"광주","address":"광주광역시 광산구 송정동 1003-12 광주송정역","Lat":35.13772972077455,"Lng":126.79034102127807},
{"name":"쌍촌역","line":"1호선","area":"광주","address":"광주광역시 서구 쌍촌동 1006 ","Lat":35.15167153969596,"Lng":126.8695161761056},
{"name":"양동시장역","line":"1호선","area":"광주","address":"광주광역시 서구 양동 304-3 ","Lat":35.15437933452906,"Lng":126.90130715136999},
{"name":"운천역","line":"1호선","area":"광주","address":"광주광역시 서구 쌍촌동 1006 ","Lat":35.15055967765273,"Lng":126.85858969511584},
{"name":"평동역","line":"1호선","area":"광주","address":"광주광역시 광산구 월전동 51-23 ","Lat":35.12480213618441,"Lng":126.7695440785345},
{"name":"학동.증심사입구역","line":"1호선","area":"광주","address":"광주광역시 동구 학동 1004-1 ","Lat":35.132915440254706,"Lng":126.92832409375256},
{"name":"화정역","line":"1호선","area":"광주","address":"광주광역시 서구 화정동 791 ","Lat":35.152018105190955,"Lng":126.87674389503324},
{"name":"갈마역","line":"1호선","area":"대전","address":"대전광역시 서구 갈마동 1462 ","Lat":36.35760105743916,"Lng":127.37276365444166},
{"name":"갑천역","line":"1호선","area":"대전","address":"대전광역시 서구 월평동 1555 ","Lat":36.35472866326174,"Lng":127.35459195525043},
{"name":"구암역","line":"1호선","area":"대전","address":"대전광역시 유성구 구암동 96-3 ","Lat":36.356732707190865,"Lng":127.3305641084711},
{"name":"노은역","line":"1호선","area":"대전","address":"대전광역시 유성구 지족동 962 ","Lat":36.374199116577735,"Lng":127.31784365359415},
{"name":"대동역","line":"1호선","area":"대전","address":"대전광역시 동구 대동 148-54 ","Lat":36.329585118261186,"Lng":127.44284736167455},
{"name":"대전역역","line":"1호선","area":"대전","address":"대전광역시 동구 정동 1-298 ","Lat":36.33159441062884,"Lng":127.43313134433706},
{"name":"반석역","line":"1호선","area":"대전","address":"대전광역시 유성구 반석동 685 ","Lat":36.39217849045225,"Lng":127.31462145019748},
{"name":"서대전네거리역","line":"1호선","area":"대전","address":"대전광역시 중구 용두동 155 서대전네거리역","Lat":36.322464643311164,"Lng":127.41253756733835},
{"name":"시청역","line":"1호선","area":"대전","address":"대전광역시 서구 둔산동 1408-1 ","Lat":36.351725240878004,"Lng":127.38674865539849},
{"name":"신흥역","line":"1호선","area":"대전","address":"대전광역시 동구 판암동 708-3 ","Lat":36.31980552892453,"Lng":127.44848527237792},
{"name":"오룡역","line":"1호선","area":"대전","address":"대전광역시 중구 오류동 195 ","Lat":36.32861042060703,"Lng":127.40507351438384},
{"name":"용문역","line":"1호선","area":"대전","address":"대전광역시 서구 용문동 262 ","Lat":36.33830306201738,"Lng":127.39332572709435},
{"name":"월드컵경기장역","line":"1호선","area":"대전","address":"대전광역시 유성구 노은동 566 일원","Lat":36.36691705515493,"Lng":127.31784022991505},
{"name":"월평역","line":"1호선","area":"대전","address":"대전광역시 서구 월평동 1503-1 ","Lat":36.35832279061198,"Lng":127.3643565097745},
{"name":"유성온천역","line":"1호선","area":"대전","address":"대전광역시 유성구 봉명동 240 ","Lat":36.353756495984356,"Lng":127.34156413594442},
{"name":"정부청사역","line":"1호선","area":"대전","address":"대전광역시 서구 둔산동 1515-1 ","Lat":36.35749149736587,"Lng":127.38115467085416},
{"name":"중구청역","line":"1호선","area":"대전","address":"대전광역시 중구 대흥동 630 ","Lat":36.32490558592732,"Lng":127.41963626038208},
{"name":"중앙로역","line":"1호선","area":"대전","address":"대전광역시 중구 은행동 216 ","Lat":36.32872076882283,"Lng":127.42584543739177},
{"name":"지족역","line":"1호선","area":"대전","address":"대전광역시 유성구 지족동 836-6 ","Lat":36.384158288972635,"Lng":127.31950678655866},
{"name":"탄방역","line":"1호선","area":"대전","address":"대전광역시 서구 탄방동 1449 ","Lat":36.34556770862885,"Lng":127.38460213225412},
{"name":"판암역","line":"1호선","area":"대전","address":"대전광역시 동구 판암동 484 ","Lat":36.31694811475478,"Lng":127.45827210893667},
{"name":"현충원역","line":"1호선","area":"대전","address":"대전광역시 유성구 구암동 424 ","Lat":36.35908780407986,"Lng":127.3214628646225}
{"name":"정평역","line":"2호선","area":"대구","address":"경상북도 경산시 정평동 144-3 ","Lat":35.83409517898839,"Lng":128.72866195164596},
{"name":"임당역","line":"2호선","area":"대구","address":"경상북도 경산시 중방동 50-4 ","Lat":35.834137429299915,"Lng":128.74089309972362},
{"name":"영남대역","line":"2호선","area":"대구","address":"경상북도 경산시 대동 201-1 ","Lat":35.83637863302175,"Lng":128.7529679689884},
{"name":"사상역","line":"부산김해","area":"부산","address":"부산광역시 사상구 괘법동 572-1 ","Lat":35.162382224889,"Lng":128.9859507081865},
{"name":"괘법르네시떼역","line":"부산김해","area":"부산","address":"부산광역시 사상구 괘법동 572-17 ","Lat":35.16327806589769,"Lng":128.97775099200027},
{"name":"서부산유통지구역","line":"부산김해","area":"부산","address":"부산광역시 강서구 대저2동 3149 ","Lat":35.16642603606975,"Lng":128.9549234213915},
{"name":"공항역","line":"부산김해","area":"부산","address":"부산광역시 강서구 대저2동 2353-1 ","Lat":35.17192052687052,"Lng":128.94856571131248},
{"name":"덕두역","line":"부산김해","area":"부산","address":"부산광역시 강서구 대저2동 1858-3 ","Lat":35.18201743334676,"Lng":128.9541398594274},
{"name":"등구역","line":"부산김해","area":"부산","address":"부산광역시 강서구 대저1동 3133-18 ","Lat":35.19620282907908,"Lng":128.96356303579688},
{"name":"대저역","line":"부산김해","area":"부산","address":"부산광역시 강서구 대저1동 1536-2 ","Lat":35.21307244295599,"Lng":128.96073121319586},
{"name":"평강역","line":"부산김해","area":"부산","address":"부산광역시 강서구 대저1동 1639-1 ","Lat":35.21407061912676,"Lng":128.95076994979158},
{"name":"대사역","line":"부산김해","area":"부산","address":"부산광역시 강서구 강동동 110-2 ","Lat":35.21769173069603,"Lng":128.9384002899011},
{"name":"불암역","line":"부산김해","area":"부산","address":"경상남도 김해시 불암동 193-24 ","Lat":35.22219892797421,"Lng":128.92786305333553},
{"name":"지내역","line":"부산김해","area":"부산","address":"경상남도 김해시 지내동 165-1 ","Lat":35.2275305590513,"Lng":128.92376038555165},
{"name":"김해대학역","line":"부산김해","area":"부산","address":"경상남도 김해시 삼정동 150-42 ","Lat":35.228129519308226,"Lng":128.9017413258897},
{"name":"인제대역","line":"부산김해","area":"부산","address":"경상남도 김해시 삼정동 150-42 ","Lat":35.228129519308226,"Lng":128.9017413258897},
{"name":"김해시청역","line":"부산김해","area":"부산","address":"경상남도 김해시 부원동 559-1 ","Lat":35.22713181654777,"Lng":128.89041536094345},
{"name":"부원역","line":"부산김해","area":"부산","address":"경상남도 김해시 부원동 641 ","Lat":35.22650363627627,"Lng":128.88389422052478},
{"name":"봉황역","line":"부산김해","area":"부산","address":"경상남도 김해시 전하동 1232 ","Lat":35.22730338646793,"Lng":128.8743236489584},
{"name":"수로왕릉역","line":"부산김해","area":"부산","address":"경상남도 김해시 외동 1140-1 ","Lat":35.23278155487956,"Lng":128.8721523351649},
{"name":"박물관역","line":"부산김해","area":"부산","address":"경상남도 김해시 내동 1037-1 ","Lat":35.24007591927378,"Lng":128.87186797425272},
{"name":"연지공원역","line":"부산김해","area":"부산","address":"경상남도 김해시 구산동 1072-8 ","Lat":35.249613255108855,"Lng":128.8692890674781},
{"name":"장신대역","line":"부산김해","area":"부산","address":"경상남도 김해시 삼계동 1520-2 ","Lat":35.259543485650106,"Lng":128.86721929846857},
{"name":"가야대역","line":"부산김해","area":"부산","address":"경상남도 김해시 삼계동 1519-7 ","Lat":35.2667795743821,"Lng":128.86499946370117},
{"name":"압구정로데오역","line":"분당선","area":"수도권","address":"서울특별시 강남구 압구정동 495 ","Lat":37.52744854329012,"Lng":127.04059783161362},
{"name":"서울숲역","line":"분당선","area":"수도권","address":"서울특별시 성동구 성수동1가 656-436 ","Lat":37.54370996443443,"Lng":127.0447351953408},
{"name":"왕십리역","line":"분당선","area":"수도권","address":"서울특별시 성동구 행당동 168-151 ","Lat":37.560890465462464,"Lng":127.03886811989972},
